ID,Source,Severity,Start_Time,End_Time,Start_Lat,Start_Lng,End_Lat,End_Lng,Distance(mi),Description,Street,City,County,State,Zipcode,Country,Timezone,Airport_Code,Weather_Timestamp,Temperature(F),Wind_Chill(F),Humidity(%),Pressure(in),Visibility(mi),Wind_Direction,Wind_Speed(mph),Precipitation(in),Weather_Condition,Amenity,Bump,Crossing,Give_Way,Junction,No_Exit,Railway,Roundabout,Station,Stop,Traffic_Calming,Traffic_Signal,Turning_Loop,Sunrise_Sunset,Civil_Twilight,Nautical_Twilight,Astronomical_Twilight
A-5433130,Source1,2,2023-01-19 15:55:35.000000000,2023-01-19 17:35:40.000000000,41.4985,-81.673401,41.493891,-81.684438,0.654,Incident on I-90 WB near I-90 Drive with caution.,I-90,Cleveland,Cuyahoga,OH,44115,US,US/Eastern,KBKL,2023-01-19 15:53:00,50.0,50.0,77.0,28.87,10.0,N,5.0,0.0,Fair,False,False,False,False,False,False,False,False,False,False,False,False,False,Day,Day,Day,Day
A-4711766,Source1,2,2022-07-31 12:53:30,2022-07-31 15:15:00,38.219207,-77.49952900000002,38.268646,-77.51427,3.508,Slow traffic on I-95 N from VA-606/Exit 118 (I-95) to VA-3/Exit 130 (I-95) due to accident.,I-95 N,Fredericksburg,Spotsylvania,VA,22408,US,US/Eastern,KEZF,2022-07-31 12:55:00,79.0,79.0,66.0,30.07,10.0,S,6.0,0.0,Cloudy,False,False,False,False,False,False,False,False,False,False,False,False,False,Day,Day,Day,Day
A-4801768,Source1,2,2022-01-31 04:45:00,2022-01-31 06:03:22,35.213681459258964,-109.33777213044482,35.20259145925896,-109.37907213044484,2.454,Incident on I-40 WB near US-191 Left shoulder closed.,I-40 W,Chambers,Apache,AZ,86502,US,US/Mountain,KRQE,2022-01-31 04:53:00,13.0,13.0,77.0,23.49,10.0,SSW,3.0,0.0,Fair,False,False,False,False,False,False,False,False,False,False,False,False,False,Night,Night,Night,Night
A-2325748,Source2,3,2019-01-09 10:59:06,2019-01-09 11:33:00,42.323223,-83.443214,,,0.0,Two lanes blocked and left hand shoulder blocked due to accident on I-275 Southbound after Exit 25 M-153 Ford Rd.,I-275 N,Canton,Wayne,MI,48187,US,US/Eastern,KYIP,2019-01-09 11:04:00,27.0,15.2,75.0,30.03,2.5,WNW,15.0,0.0,Light Snow,False,False,False,False,False,False,False,False,False,False,False,False,False,Day,Day,Day,Day
A-1442114,Source2,2,2020-08-29 18:09:03,2020-08-29 19:08:34,43.754082,-74.792618,,,0.0,Restrictions due to accident on NY-28 both ways at Highland Trl.,State Highway 28,Inlet,Hamilton,NY,13360-1500,US,US/Eastern,KRME,2020-08-29 17:53:00,80.0,80.0,62.0,28.88,10.0,W,20.0,0.0,Fair,False,False,False,False,False,False,False,False,False,False,False,False,False,Day,Day,Day,Day
A-323200,Source2,2,2017-02-07 08:05:55,2017-02-07 08:37:03,33.799274,-81.640038,,,0.01,Accident on US-1 Columbia Hwy both ways at SC-392 Engineer Rd.,Engineer Rd,Ridge Spring,Saluda,SC,29129-9258,US,US/Eastern,KAIK,2017-02-07 08:15:00,51.8,,94.0,30.08,7.0,South,4.6,,Clear,False,False,False,False,False,False,False,False,False,True,False,False,False,Day,Day,Day,Day
A-2401596,Source2,3,2018-12-17 06:41:52,2018-12-17 07:11:21,33.263690999999994,-97.178368,,,0.0,One lane blocked due to accident on I-35 Southbound at US-77.,N Interstate 35,Denton,Denton,TX,76207-1437,US,US/Central,KDTO,2018-12-17 06:53:00,39.0,33.4,79.0,30.25,10.0,North,8.1,,Clear,False,False,False,False,False,False,False,False,False,False,False,True,False,Night,Night,Day,Day
A-6452889,Source1,2,2021-01-13 01:48:12,2021-01-13 02:48:12,45.127564,-123.116888,45.12885900000001,-123.106581,0.51,A crash has occurred use caution., SE Lafayette Hwy,Dayton,Yamhill,OR,97114-8629,US,US/Pacific,KMMV,2021-01-13 01:53:00,50.0,50.0,83.0,29.8,10.0,WSW,12.0,0.01,Cloudy,False,False,False,False,False,False,False,False,False,False,False,False,False,Night,Night,Night,Night
A-4596721,Source1,2,2022-07-14 13:00:59,2022-07-14 15:16:04,45.590719,-122.682078,45.59338,-122.682852,0.188,A crash has the NB left lane closed near Victory. Use caution.,I-5 N,Portland,Multnomah,OR,97217,US,US/Pacific,KVUO,2022-07-14 12:53:00,74.0,74.0,50.0,29.99,10.0,WNW,9.0,0.0,Fair,False,False,False,False,True,False,False,False,False,False,False,False,False,Day,Day,Day,Day
A-1036454,Source2,2,2021-05-21 16:39:10,2021-05-21 17:44:10,37.24152,-122.00221299999998,,,0.0,Lane blocked due to accident on CA-9 Saratoga Los Gatos Rd at Austin Way.,Saratoga Los Gatos Rd,Los Gatos,Santa Clara,CA,95030,US,US/Pacific,KSJC,2021-05-21 16:53:00,68.0,68.0,27.0,29.89,10.0,NW,14.0,0.0,Fair,False,False,False,False,False,False,False,False,False,True,False,False,False,Day,Day,Day,Day
A-5717345,Source1,2,2021-05-05 05:11:30,2021-05-05 18:41:11,32.85275816901754,-96.65240406943964,32.85564816901755,-96.64900406943964,0.281,Slow traffic from Maylee Blvd (Ferguson Rd) to I-635 (Ferguson Rd) due to accident.,Drummond Dr,Dallas,Dallas,TX,75228,US,US/Central,KDAL,2021-05-05 04:53:00,54.0,54.0,77.0,29.58,10.0,NNE,3.0,0.0,Fair,False,False,False,False,False,False,False,False,False,False,False,False,False,Night,Night,Night,Day
A-2089485,Source2,2,2019-05-08 06:38:10,2019-05-08 09:28:17,40.06488,-75.321342,,,0.0,Accident on Matsonford Rd at I-476.,I-476 N,Conshohocken,Montgomery,PA,19428,US,US/Eastern,KLOM,2019-05-08 06:35:00,55.0,55.0,100.0,29.87,10.0,CALM,0.0,0.0,Cloudy,False,False,False,False,False,False,False,False,False,False,False,False,False,Day,Day,Day,Day
A-5666373,Source1,2,2021-11-03 05:36:30,2021-11-03 09:01:30,29.757299,-95.352511,29.736847,-95.369004,1.725,Stationary traffic on US-59 S - I-69 S from Runnels St/Canal St (US-59) to TX-288 (US-59) due to accident.,I-69 S,Houston,Harris,TX,77002,US,US/Central,KMCJ,2021-11-03 05:53:00,65.0,65.0,78.0,30.08,10.0,ENE,8.0,0.0,Mostly Cloudy,False,False,False,False,False,False,False,False,False,False,False,False,False,Night,Night,Night,Night
A-6035654,Source1,2,2021-09-10 09:33:30,2021-09-10 09:59:30,28.34681,-81.635082,28.346861,-81.62961999999997,0.332,Stationary traffic on US-192 E - County Hwy-545 from CR-545/Avalon Rd (US-192) to FL-429 Toll/Western Expy (W Irlo Bronson Memorial Hwy/Vine St/US-192) due to accident., W Irlo Bronson Memorial Hwy,Kissimmee,Osceola,FL,34747-1001,US,US/Eastern,KISM,2021-09-10 09:56:00,,,,,10.0,WNW,5.0,0.0,Fair,False,False,True,False,False,False,False,False,False,False,False,False,False,Day,Day,Day,Day
A-5459125,Source1,2,2022-11-16 16:04:45,2022-11-16 17:24:14,39.535242,-104.868233,39.548459,-104.869267,0.915,At Exit 193: Lincoln Avenue (Lone Tree) at Mile Point 193. Two right lanes are closed due to a crash.,I-25,Parker,Douglas,CO,80134,US,US/Mountain,KAPA,2022-11-16 15:53:00,37.0,32.0,34.0,24.39,10.0,NE,6.0,0.0,Partly Cloudy,False,False,False,False,False,False,False,False,False,False,False,False,False,Day,Day,Day,Day
A-448954,Source2,2,2017-05-13 10:18:34,2017-05-13 11:03:07,40.248447,-74.727745,,,0.0099999997764825,Left lane blocked due to accident on US-1 Northbound at County Hwy-616 Whitehead Rd.,Whitehead Rd,Lawrence Township,Mercer,NJ,08648-4404,US,US/Eastern,KTTN,2017-05-13 09:53:00,50.0,,96.0,29.82,4.0,ENE,18.4,0.13,Rain,False,False,False,False,False,False,False,False,False,False,False,False,False,Day,Day,Day,Day
A-5768450,Source1,2,2021-11-16 10:25:00,2021-11-16 13:00:00,40.13017058353362,-80.33019661865077,40.147170583533615,-80.30229661865077,1.885,Incident on I-70 EB near S SUNSET BEACH RD Road closed. Take alternate route.,I-70,Washington,Washington,PA,15301,US,US/Eastern,KAFJ,2021-11-16 10:53:00,38.0,38.0,79.0,28.9,10.0,CALM,0.0,0.0,Cloudy,False,False,False,False,False,False,False,False,False,False,False,False,False,Day,Day,Day,Day
A-6684598,Source1,2,2020-11-25 03:24:47,2020-11-25 05:07:26,34.988226,-81.981269,34.988569,-81.981189,0.024,Incident on VALLEY FALLS RD near ASHEVILLE HWY Drive with caution., Valley Falls Rd,Spartanburg,Spartanburg,SC,29303-1733,US,US/Eastern,KSPA,2020-11-25 03:15:00,45.0,45.0,71.0,29.44,10.0,CALM,0.0,0.0,Cloudy,False,False,True,False,False,False,False,False,False,False,False,False,False,Night,Night,Night,Night
A-3651277,Source1,2,2023-02-26 15:05:35.000000000,2023-02-26 16:32:30.000000000,40.599518,-74.31873399999998,40.557491,-74.32002,2.905,Stationary traffic on Garden State Pkwy S from Central Ave/Brant Ave/Exit 135 (Garden State Pkwy) to US-1/Exit 130 (Garden State Pkwy) due to accident.,Inman Ave,Colonia,Middlesex,NJ,07067,US,US/Eastern,KLDJ,2023-02-26 14:55:00,49.0,43.0,50.0,29.75,10.0,W,16.0,0.0,Fair,False,False,False,False,False,False,False,False,False,False,False,False,False,Day,Day,Day,Day
A-225362,Source2,2,2016-09-28 08:55:30,2016-09-28 09:25:19,39.75452,-84.159279,,,0.0,Accident on US-35 at Steve Whalen Blvd.,US-35 E,Dayton,Montgomery,OH,45410,US,US/Eastern,KFFO,2016-09-28 08:58:00,55.6,,99.0,29.88,2.5,South,4.6,0.04,Thunderstorms and Rain,False,False,False,False,False,False,False,False,False,False,False,False,False,Day,Day,Day,Day
A-5842235,Source1,2,2021-10-19 17:11:30,2021-10-19 19:12:50,32.911871999999995,-117.152207,32.913661,-117.143807,0.503,Slow traffic from Parkdale Ave to New Salem St due to accident., Mira Mesa Blvd,San Diego,San Diego,CA,92126,US,US/Pacific,KNKX,2021-10-19 16:55:00,62.0,62.0,58.0,29.48,10.0,W,9.0,0.0,Fair,False,False,True,False,False,False,False,False,True,True,False,False,False,Day,Day,Day,Day
A-5241306,Source1,2,2022-07-23 04:26:32,2022-07-23 05:46:59,33.85568,-80.258637,33.856506,-80.247853,0.621,Incident on BRITTON RD near EXCITEMENT LN Expect delays., Britton Rd,Sumter,Sumter,SC,29153-9601,US,US/Eastern,KSMS,2022-07-23 04:35:00,75.0,75.0,94.0,29.89,10.0,CALM,0.0,0.0,Fair,False,False,False,False,False,False,False,False,False,False,False,False,False,Night,Night,Night,Night
A-6927836,Source1,2,2020-11-11 23:02:00,2020-11-12 00:37:15,30.191727,-81.705247,30.191587,-81.71046700000002,0.312,Incident on I-295 NB near ROOSEVELT BLVD Drive with caution.,W Beltway N,Jacksonville,Duval,FL,32244,US,US/Eastern,KNIP,2020-11-11 22:53:00,76.0,76.0,91.0,29.83,10.0,SE,21.0,0.0,Mostly Cloudy / Windy,False,False,False,False,True,False,False,False,False,False,False,False,False,Night,Night,Night,Night
A-6189953,Source1,2,2021-04-07 06:28:30.000000000,2021-04-07 13:24:29.000000000,28.084478000000004,-82.739224,28.094427000000003,-82.739489,0.688,Stationary traffic on US-19 N from Highlands Blvd (US-19) to Klosterman Rd (US-19) due to accident., US Highway 19 N,Palm Harbor,Pinellas,FL,34684,US,US/Eastern,KPIE,2021-04-07 06:53:00,61.0,61.0,90.0,30.08,10.0,ESE,5.0,0.0,Fair,False,False,False,False,False,False,False,False,False,False,False,False,False,Night,Night,Day,Day
A-2688598,Source2,3,2018-07-05 15:17:30,2018-07-05 15:47:07,29.72868,-95.46022,,,0.0,Lane blocked due to accident on I-69 Southbound at I-610.,US-59 S,Houston,Harris,TX,77027,US,US/Central,KMCJ,2018-07-05 15:15:00,82.4,,74.0,30.15,10.0,SSE,10.4,,Mostly Cloudy,False,False,False,False,False,False,False,False,False,False,False,False,False,Day,Day,Day,Day
A-395739,Source2,2,2017-03-02 20:46:15,2017-03-02 21:31:01,47.688732,-122.337753,,,0.0,Accident on Densmore Ave near 82nd St.,N 82nd St,Seattle,King,WA,98103-4430,US,US/Pacific,KBFI,2017-03-02 20:53:00,44.1,37.7,96.0,30.19,10.0,South,12.7,0.01,Light Rain,False,False,True,False,False,False,False,False,False,True,False,False,False,Night,Night,Night,Night
A-2981261,Source3,2,2018-01-31 16:40:39,2018-01-31 17:40:19,34.82135,-82.415894,,,0.0,Restrictions due to accident on Henrydale Ave at US-29 Mills Ave.,Mills Ave,Greenville,Greenville,SC,29605-4249,US,US/Eastern,KGYH,2018-01-31 16:47:00,50.0,,28.0,30.18,10.0,South,13.8,,Clear,False,False,False,False,False,False,False,False,False,False,False,False,False,Day,Day,Day,Day
A-502587,Source2,3,2017-07-20 06:40:28,2017-07-20 07:09:35,42.57125900000001,-82.858597,,,0.0,Two lanes blocked due to accident on I-94 Eastbound at Exit 236 Metro Pkwy.,I-94 W,Harrison Township,Macomb,MI,48045,US,US/Eastern,KMTC,2017-07-20 06:58:00,73.8,,100.0,29.96,10.0,South,6.9,,Clear,False,False,False,False,False,False,False,False,False,False,False,False,False,Day,Day,Day,Day
A-2896400,Source2,2,2018-04-19 18:01:48,2018-04-19 19:05:00,30.417715,-91.070686,,,0.0,Accident on US-61 Airline Hwy near Professional Blvd.,Airline Hwy,Baton Rouge,East Baton Rouge,LA,70816-4004,US,US/Central,KBTR,2018-04-19 17:53:00,70.0,,36.0,30.17,10.0,North,11.5,,Clear,False,False,False,False,False,False,False,False,False,False,False,False,False,Day,Day,Day,Day
A-5791861,Source1,2,2021-05-23 20:50:00,2021-05-23 22:35:00,42.14741400000001,-123.607622,42.147417,-123.602721,0.251,Incident on OR-46 EB near MP 2 Drive with caution., White School House Rd,Cave Junction,Josephine,OR,97523-1376,US,US/Pacific,KBOK,2021-05-23 20:56:00,51.0,51.0,92.0,29.7,10.0,CALM,0.0,0.0,Cloudy,False,False,False,False,False,False,False,False,False,False,False,False,False,Night,Day,Day,Day
A-1591616,Source2,2,2020-01-14 11:21:26,2020-01-14 14:54:06,30.203266,-97.639313,,,0.0,Accident on TX-71 Serv Rd Westbound at FM-973.,Highway 71 E,Del Valle,Travis,TX,78617,US,US/Central,KAUS,2020-01-14 11:17:00,65.0,65.0,97.0,29.55,1.0,CALM,0.0,0.0,Fog,False,False,False,False,False,False,False,False,False,False,True,True,False,Day,Day,Day,Day
A-3052091,Source2,2,2018-01-08 10:50:17,2018-01-08 11:50:03,33.828159,-81.202568,,,0.0,Accident on SC-6 at Peachtree Rock Rd.,Peachtree Rock Rd,Lexington,Lexington,SC,29073-7576,US,US/Eastern,KCAE,2018-01-08 10:56:00,39.0,34.8,46.0,30.36,10.0,ESE,5.8,,Scattered Clouds,False,False,False,False,False,False,False,False,False,False,False,False,False,Day,Day,Day,Day
A-5679615,Source1,2,2021-09-20 00:13:00,2021-09-20 05:00:00,35.253270864318594,-82.21774220427409,35.248370864318595,-82.32396220427408,6.002999999999999,Near Saluda / Mile Marker 63 Heading East. The left lane is closed 4 miles East of Exit 59 (Holbert Cove Road).,US-74,Columbus,Polk,NC,28722,US,US/Eastern,KFQD,,,,,,,,,,,False,False,False,False,False,False,False,False,False,False,False,False,False,Night,Night,Night,Night
A-5393031,Source1,2,2022-09-07 19:19:00.000000000,2022-09-08 02:02:25.000000000,30.368339,-97.613133,30.368579,-97.613057,0.017,Incident on HARRIS BRANCH PKY near E PARMER LN Drive with caution.,Harris Branch Pkwy,Austin,Travis,TX,78754,US,US/Central,KEDC,2022-09-07 19:15:00,73.0,73.0,88.0,29.27,,ESE,13.0,0.0,,False,False,False,False,False,False,False,False,False,False,False,True,False,Day,Day,Day,Day
A-1563123,Source2,2,2020-04-23 20:33:52,2020-04-23 21:23:01,38.919807,-76.932526,,,2.2799999713897705,Main roadway closed due to accident on MD-295 Southbound from MD-202 Landover Rd to US-50. Traffic getting by on the shoulder.,Baltimore Washington Pkwy N,Hyattsville,Prince George's,MD,20781,US,US/Eastern,KCGS,2020-04-23 20:43:00,52.0,52.0,94.0,29.81,5.0,CALM,0.0,0.0,Cloudy,False,False,False,False,False,False,False,False,False,False,False,False,False,Night,Night,Day,Day
A-4725056,Source1,2,2022-11-12 14:13:00.000000000,2022-11-12 15:33:43.000000000,33.853091,-117.374551,33.849632,-117.374397,0.239,Incident on MOCKINGBIRD CANYON RD near HOUSE 18350 Drive with caution., Mockingbird Canyon Rd,Riverside,Riverside,CA,92504-9690,US,US/Pacific,KRAL,2022-11-12 13:53:00,69.0,69.0,22.0,29.12,10.0,VAR,6.0,0.0,Fair,False,False,False,False,False,False,False,False,False,False,False,False,False,Day,Day,Day,Day
A-4244072,Source1,4,2022-12-08 15:52:00.000000000,2022-12-08 19:23:27.000000000,40.60937,-77.713306,40.619027,-77.695548,1.146,Multi vehicle crash on PA 655 both directions between MAPLE GROVE RD and N DRYHOUSE RD S DRYHOUSE RD. All lanes closed., Maple Grove Rd,Belleville,Mifflin,PA,17004-8737,US,US/Eastern,KUNV,2022-12-08 15:53:00,45.0,42.0,61.0,28.9,10.0,N,5.0,0.0,Cloudy,False,False,False,False,False,False,False,False,False,False,False,False,False,Day,Day,Day,Day
A-4337760,Source1,2,2022-01-18 14:31:29,2022-01-18 16:00:58,35.775593519040214,-78.5547673698494,35.76911351904022,-78.52712736984941,1.6130000000000002,Incident on 490-560 I-87 NB near 490-560 I-87 Expect delays.,US-264,Raleigh,Wake,NC,27610,US,US/Eastern,KRDU,2022-01-18 14:51:00,48.0,44.0,34.0,29.7,10.0,W,8.0,0.0,Fair,False,False,False,False,False,False,False,False,False,False,False,False,False,Day,Day,Day,Day
A-5224960,Source1,2,2022-02-05 09:41:30.000000000,2022-02-05 13:38:30.000000000,34.072182,-117.898908,34.066008000000004,-117.993862,5.4510000000000005,Slow traffic on I-10 W - San Bernardino Fwy W from Citrus St (I-10) to I-605 (I-10) due to accident., Hollenbeck Ave,West Covina,Los Angeles,CA,91791,US,US/Pacific,KPOC,2022-02-05 09:47:00,57.0,57.0,23.0,29.16,10.0,CALM,0.0,,Fair,False,False,False,False,False,False,False,False,False,False,False,False,False,Day,Day,Day,Day
A-3853788,Source1,2,2022-06-10 09:16:00,2022-06-10 09:43:30,40.155894,-76.809811,40.15803,-76.804917,0.298,Stationary traffic on PA-392 from Vista Cir to Red Mill Rd due to accident., Yocumtown Rd,Etters,York,PA,17319-9760,US,US/Eastern,KMDT,2022-06-10 08:56:00,67.0,67.0,57.0,29.56,10.0,WNW,8.0,0.0,Mostly Cloudy,False,False,False,False,False,False,False,False,False,False,False,False,False,Day,Day,Day,Day
A-5135765,Source1,4,2022-07-15 10:00:28,2022-07-15 12:17:47,42.338445,-83.12246800000001,42.336436,-83.127522,0.293,WB I-94 at Livernois,Edsel Ford Fwy W,Detroit,Wayne,MI,48210,US,US/Eastern,KDET,2022-07-15 09:53:00,77.0,77.0,50.0,29.51,10.0,SSE,9.0,0.0,Fair,False,False,False,False,True,False,False,False,False,False,False,False,False,Day,Day,Day,Day
A-432216,Source2,2,2017-04-20 07:53:28,2017-04-20 08:23:14,29.738117,-95.34201,,,0.01,Accident on Leeland St at Keating St.,Leeland St,Houston,Harris,TX,77023-3011,US,US/Central,KMCJ,2017-04-20 07:55:00,71.6,,94.0,30.02,4.0,SSE,9.2,,Clear,False,False,False,False,False,False,False,False,False,False,False,False,False,Day,Day,Day,Day
A-2815029,Source2,3,2018-05-10 08:43:27,2018-05-10 09:13:06,33.827091,-84.252602,,,0.0,Left lane blocked due to accident on I-285 Northbound before Exit 38 US-29 Lawrenceville Hwy.,GA-407 S,Tucker,DeKalb,GA,30084,US,US/Eastern,KPDK,2018-05-10 08:53:00,71.1,,66.0,30.08,10.0,SSW,4.6,,Clear,False,False,False,False,False,False,False,False,False,False,False,False,False,Day,Day,Day,Day
A-1108412,Source2,2,2021-03-24 08:23:00,2021-03-24 09:26:52,29.692835,-95.413101,,,0.0,Accident on Kirby Dr at US-90-ALT Old Spanish Trl.,Old Spanish Trl,Houston,Harris,TX,77054,US,US/Central,KMCJ,2021-03-24 08:28:00,67.0,67.0,90.0,29.71,6.0,E,13.0,0.0,Cloudy,False,False,True,False,False,False,False,False,False,False,False,True,False,Day,Day,Day,Day
A-5107630,Source1,2,2022-12-15 18:10:00.000000000,2022-12-15 19:26:55.000000000,34.003988,-117.062232,34.004028000000005,-117.059475,0.158,Incident on W COUNTY LINE RD near CALIMESA BLVD Expect delays., Calimesa Blvd,Calimesa,Riverside,CA,92320-1121,US,US/Pacific,KBUO,2022-12-15 17:55:00,55.0,55.0,43.0,28.46,10.0,CALM,0.0,0.0,Fair,False,False,False,False,False,False,False,False,False,False,False,True,False,Night,Night,Night,Night
A-4026749,Source1,2,2022-12-12 17:57:38,2022-12-12 19:12:39,38.806363,-76.987039,38.807073,-76.979883,0.388,Incident on I-495 NB near BELTWAY COLLEGE PARK Drive with caution.,Capital Beltway N,Oxon Hill,Prince George's,MD,20745,US,US/Eastern,KDCA,2022-12-12 17:52:00,42.0,35.0,58.0,30.25,10.0,NW,13.0,0.0,Cloudy,False,False,False,False,False,False,False,False,False,False,False,False,False,Night,Night,Night,Day
A-4873259,Source1,2,2022-01-30 13:30:00.000000000,2022-01-30 16:12:23.000000000,33.953661,-117.926521,33.953886,-117.92484,0.098,Incident on FULLERTON RD near HOUSE 1620 Drive with caution., Fullerton Rd,La Habra,Los Angeles,CA,90631-8414,US,US/Pacific,KFUL,2022-01-30 13:53:00,68.0,68.0,39.0,29.99,10.0,SSW,7.0,0.0,Fair,False,False,False,False,False,False,False,False,False,False,False,False,False,Day,Day,Day,Day
A-2127114,Source2,2,2019-05-28 10:20:02,2019-05-28 11:19:55,41.96442,-88.09925799999998,,,0.0,Accident on US-20 Lake St at Springfield Dr.,Lake St,Roselle,DuPage,IL,60172-3548,US,US/Central,KORD,2019-05-28 09:51:00,66.0,66.0,75.0,29.04,10.0,NW,8.0,0.0,Cloudy,False,False,False,False,False,False,False,False,False,False,False,True,False,Day,Day,Day,Day
A-5651031,Source1,2,2021-09-22 18:42:00,2021-09-23 19:30:39,32.62629389747321,-109.68997836060672,32.60384389747321,-109.68630836060672,1.5659999999999998,Construction on S US-191 SB near COCHISE GRAHAM COUNTY LINE Road closed. Take alternate route., S US Highway 191,Safford,Graham,AZ,85546,US,US/Mountain,KSAD,2021-09-22 18:51:00,86.0,86.0,22.0,26.8,10.0,S,3.0,0.0,Fair,False,False,False,False,False,False,False,False,False,False,False,False,False,Night,Night,Day,Day
A-4794237,Source1,2,2022-03-05 10:19:00,2022-03-05 12:22:29,33.930973,-118.290221,33.929686,-118.291929,0.132,Slow traffic on CA-90 from Menlo Ave to I-105 W due to accident., W Imperial Hwy,Los Angeles,Los Angeles,CA,90044-4110,US,US/Pacific,KHHR,2022-03-05 09:53:00,57.0,57.0,51.0,30.01,10.0,W,21.0,0.0,Fair / Windy,False,False,False,False,False,False,False,False,False,False,False,False,False,Day,Day,Day,Day
A-6563704,Source1,2,2021-02-06 17:41:00,2021-02-06 19:06:21,30.320840000000004,-81.704471,30.320565,-81.691151,0.795,Incident on I-10 EB near MCDUFF AVE Left lane blocked.,FL-8 E,Jacksonville,Duval,FL,32205,US,US/Eastern,KNIP,2021-02-06 17:53:00,55.0,55.0,100.0,29.89,4.0,SE,9.0,0.09,Light Rain,False,False,False,False,False,False,False,False,False,False,False,False,False,Day,Day,Day,Day
A-1286949,Source2,2,2020-11-01 15:01:12,2020-11-01 15:31:53,33.870724,-117.74485,,,0.0,#3 lane blocked due to accident on CA-91 Westbound at Exit 39 Weir Canyon Rd.,S Weir Canyon Rd,Anaheim,Orange,CA,92807,US,US/Pacific,KFUL,2020-11-01 14:53:00,89.0,89.0,19.0,29.92,10.0,VAR,5.0,0.0,Fair,False,False,False,False,False,False,False,False,False,False,False,False,False,Day,Day,Day,Day
A-5391072,Source1,2,2022-04-03 05:19:00.000000000,2022-04-03 06:36:15.000000000,38.50022435169935,-121.434234380143,38.50028435169935,-121.433054380143,0.064,Incident on 65TH ST near HOUSE 6965 Expect delays., 65th St,Sacramento,Sacramento,CA,95823-2341,US,US/Pacific,KSAC,2022-04-03 04:53:00,50.0,50.0,54.0,29.9,10.0,NW,3.0,0.0,Fair,False,False,True,False,False,False,False,False,False,False,False,False,False,Night,Night,Night,Day
A-1669094,Source2,2,2020-02-26 07:50:33,2020-02-26 08:50:06,32.812939,-79.856667,,,0.0,Right lane blocked due to accident on US-17 Johnnie Dodds Blvd Eastbound at Bowman Rd.,N Highway 17,Mount Pleasant,Charleston,SC,29464,US,US/Eastern,KLRO,2020-02-26 07:55:00,63.0,63.0,100.0,29.88,1.0,SSE,3.0,0.0,Fog,False,False,False,False,False,False,False,False,False,False,False,False,False,Day,Day,Day,Day
A-1138614,Source2,3,2021-02-26 16:30:31,2021-02-26 17:36:02,34.068878000000005,-117.839455,,,0.0,Two lanes blocked due to accident on I-10 Westbound at Exit 40 The Mall.,I-10 W,Covina,Los Angeles,CA,91724,US,US/Pacific,KPOC,2021-02-26 16:47:00,66.0,66.0,19.0,28.84,10.0,SW,10.0,,Fair,False,False,False,False,False,False,False,False,False,False,False,False,False,Day,Day,Day,Day
A-1913035,Source2,2,2019-09-15 13:47:45,2019-09-15 15:32:10,38.9548,-77.009041,,,0.0,Accident on North Capitol St Northbound at Riggs Rd.,N Capitol St,Washington,District of Columbia,DC,20011-2433,US,US/Eastern,KCGS,2019-09-15 13:22:00,82.0,82.0,36.0,30.1,10.0,CALM,0.0,0.0,Fair,False,False,False,False,False,False,False,False,False,False,False,True,False,Day,Day,Day,Day
A-5938499,Source1,2,2021-05-07 16:13:33,2021-05-07 16:25:26,33.442801236946856,-117.62815833035644,33.45663123694685,-117.65200833035644,1.6740000000000002,Slow traffic on I-5 N - San Diego Fwy N from Ave Pico (I-5) to Camino de Estrella (I-5) due to accident.,I-5 N,San Clemente,Orange,CA,92673,US,US/Pacific,KNXF,2021-05-07 15:55:00,69.0,69.0,57.0,29.86,10.0,WSW,8.0,0.0,Fair,False,False,False,False,True,False,False,False,False,False,False,False,False,Day,Day,Day,Day
A-1612494,Source2,2,2020-01-26 10:41:15,2020-01-26 11:10:20,42.388538,-83.438652,,,0.239999994635582,Entry ramp to I-275 Southbound from M-14 Westbound shoulder blocked due to accident.,I 275 Metro Trl,Plymouth,Wayne,MI,48170,US,US/Eastern,KYIP,2020-01-26 10:53:00,36.0,27.0,89.0,29.07,4.0,SW,14.0,0.0,Cloudy,False,False,False,False,False,False,False,False,False,False,False,False,False,Day,Day,Day,Day
A-2484831,Source2,2,2018-11-28 08:27:47,2018-11-28 09:24:00,37.46703,-77.428154,,,0.0,Accident on VA-161 Commerce Rd at VA-161 Bells Rd.,Bells Rd,Richmond,Richmond City,VA,23234,US,US/Eastern,KFCI,2018-11-28 08:56:00,33.1,22.6,50.0,29.91,10.0,WNW,16.1,,Clear,False,False,False,False,False,False,False,False,False,False,False,True,False,Day,Day,Day,Day
A-2596299,Source2,2,2018-09-20 17:14:27,2018-09-20 17:44:18,34.694756,-82.594963,,,0.0,Accident on Mountain View Rd at Firetower Rd.,Firetower Rd,Williamston,Anderson,SC,29697-9219,US,US/Eastern,KGYH,2018-09-20 16:47:00,89.6,,46.0,30.11,10.0,East,8.1,,Scattered Clouds,False,False,False,False,False,False,False,False,False,False,False,False,False,Day,Day,Day,Day
A-760985,Source2,2,2021-12-29 16:31:25,2021-12-29 17:16:14,29.750427,-95.501129,,,0.0,Accident on Voss Rd at San Felipe Dr.,S Voss Rd,Houston,Harris,TX,77057-2621,US,US/Central,KMCJ,2021-12-29 16:53:00,81.0,81.0,62.0,29.69,10.0,SW,8.0,0.0,Mostly Cloudy,False,False,True,False,False,False,False,False,False,False,False,True,False,Day,Day,Day,Day
A-833026,Source2,2,2021-11-04 04:07:48,2021-11-04 04:39:00,37.82490900000001,-122.313843,,,0.0,Right hand shoulder blocked due to accident on I-80 Westbound before the Bay Bridge Toll Plaza.,I-80 W,Oakland,Alameda,CA,94607,US,US/Pacific,KOAK,2021-11-04 03:53:00,58.0,58.0,97.0,30.11,2.0,SE,3.0,0.05,Light Rain,False,False,False,False,False,False,False,False,False,False,False,False,False,Night,Night,Night,Night
A-2133493,Source2,3,2019-04-30 16:18:01,2019-04-30 19:30:24,28.661943,-81.388611,,,0.0,Right lane blocked due to accident on I-4 Westbound at Exit 92 FL-436 Altamonte Dr.,I-4 W,Altamonte Springs,Seminole,FL,32714,US,US/Eastern,KORL,2019-04-30 15:53:00,89.0,89.0,42.0,30.04,10.0,E,21.0,0.0,Partly Cloudy / Windy,False,False,False,False,False,False,False,False,False,False,False,False,False,Day,Day,Day,Day
A-2129687,Source2,2,2019-05-29 11:55:48,2019-05-29 12:57:46,32.95406,-96.822052,,,0.0,Right lane blocked due to accident on Dallas North Tlwy Northbound at Belt Line Rd.,Belt Line Rd,Dallas,Dallas,TX,75254,US,US/Central,KADS,2019-05-29 11:49:00,75.0,75.0,83.0,29.06,5.0,S,9.0,0.0,Cloudy,False,False,True,False,False,False,False,False,False,False,False,True,False,Day,Day,Day,Day
A-422888,Source2,3,2017-05-02 10:43:20,2017-05-02 11:12:56,41.253448,-73.67627,,,0.01,Right hand shoulder blocked due to accident on I-684 Southbound at Exit 6 Saw Mill River Pkwy.,I-684 N,Katonah,Westchester,NY,10536,US,US/Eastern,KDXR,2017-05-02 10:53:00,68.0,,59.0,29.56,10.0,West,9.2,,Mostly Cloudy,False,False,False,False,False,False,False,False,False,False,False,False,False,Day,Day,Day,Day
A-6570240,Source1,2,2021-01-23 23:00:00,2021-01-24 01:15:12,40.851449,-73.952134,40.850432,-73.946936,0.281,Crash on George Washington Bridge Lower Level eastbound Mid-Span (Manhattan) 2 Right lanes of 3 lanes blocked,George Washington Brg,New York,New York,NY,10032,US,US/Eastern,KNYC,2021-01-23 22:51:00,24.0,15.0,48.0,30.06,10.0,WNW,8.0,0.0,Fair,False,False,False,False,False,False,False,False,False,False,False,False,False,Night,Night,Night,Night
A-6195263,Source1,2,2021-09-16 12:29:31,2021-09-16 14:32:13,28.412147,-81.423594,28.410228000000004,-81.42354,0.133,Stationary traffic on FL-423 from W Taft Vineland Rd to Crystal Glen Blvd due to accident., S John Young Pkwy,Orlando,Orange,FL,32837,US,US/Eastern,KMCO,2021-09-16 12:53:00,89.0,89.0,59.0,29.88,10.0,SE,8.0,0.0,Mostly Cloudy,False,False,False,False,False,False,False,False,False,False,False,False,False,Day,Day,Day,Day
A-1901406,Source2,2,2019-09-09 19:09:01,2019-09-09 19:53:37,32.762203,-96.85659,,,0.0,Accident on TX-180-BR Fort Worth Ave Eastbound at Hampton Rd.,Fort Worth Ave,Dallas,Dallas,TX,75208,US,US/Central,KRBD,2019-09-09 18:53:00,93.0,93.0,33.0,29.17,10.0,SSE,12.0,0.0,Fair,False,False,True,False,False,False,False,False,False,False,False,True,False,Day,Day,Day,Day
A-1549418,Source2,3,2020-04-08 17:17:23,2020-04-08 18:36:26,44.881428,-93.021652,,,1.4900000095367432,Accident on I-494 Westbound from Exits 63A 63B US-10 to Exit 64A Hardman Ave.,I-494 E,South Saint Paul,Dakota,MN,55075,US,US/Central,KSGS,2020-04-08 17:15:00,54.0,54.0,23.0,28.93,10.0,WNW,18.0,0.0,Fair,False,False,False,False,False,False,False,False,False,False,False,False,False,Day,Day,Day,Day
A-6182014,Source1,2,2021-12-21 14:35:30,2021-12-21 16:44:51,40.029863,-75.629602,40.028378,-75.62581999999998,0.225,Stationary traffic on US-30 Bus E - PA-100 from Brentwood Shopping Ctr to Lincoln Hwy due to accident., N Pottstown Pike,Exton,Chester,PA,19341,US,US/Eastern,KOQN,2021-12-21 14:35:00,39.0,39.0,61.0,29.29,10.0,CALM,0.0,0.0,Fair,False,False,False,False,False,False,False,False,False,False,False,False,False,Day,Day,Day,Day
A-2250211,Source2,3,2019-02-28 16:08:41,2019-02-28 16:53:17,38.821198,-91.139923,,,0.0,Left lane closed due to accident on I-70 Westbound after Exit 193 MO-47.,I-70 E,Warrenton,Warren,MO,63383,US,US/Central,KFYG,2019-02-28 16:15:00,26.6,22.6,69.0,30.14,10.0,NE,3.5,,Overcast,False,False,False,False,False,False,False,False,False,False,False,False,False,Day,Day,Day,Day
A-563323,Source2,3,2022-07-18 05:33:29,2022-07-18 06:03:08,33.409458,-111.974396,,,0.0,HOV lane blocked due to crash on I-10 Eastbound at AZ-143 48th St.,1A,Tempe,Maricopa,AZ,85282,US,US/Mountain,KPHX,2022-07-18 05:27:00,83.0,83.0,67.0,28.71,10.0,WSW,5.0,0.0,Mostly Cloudy,False,False,False,False,False,False,False,False,False,False,False,False,False,Day,Day,Day,Day
A-4165215,Source1,2,2023-01-19 19:02:00.000000000,2023-01-19 19:16:30.000000000,42.313648,-83.091076,42.306362,-83.107226,0.967,Slow traffic on I-75 S - Fisher Fwy S from Lafayette Blvd/Exit 47 (I-75) to Livernois Ave/Exit 46 (I-75) due to accident.,Fisher Fwy S,Detroit,Wayne,MI,48209,US,US/Eastern,KDET,2023-01-19 18:53:00,47.0,47.0,80.0,28.83,7.0,CALM,0.0,0.0,Light Rain,False,False,False,False,False,False,False,False,False,False,False,False,False,Night,Night,Night,Day
A-5047306,Source1,2,2022-12-09 18:22:00,2022-12-09 19:22:00,35.64268900000001,-81.98577,35.642424,-81.985789,0.018,The shoulder is closed near I-40.,US 221 S,Marion,McDowell,NC,28752,US,US/Eastern,KFQD,2022-12-09 18:15:00,48.0,48.0,100.0,29.03,10.0,CALM,0.0,0.0,Rain,False,False,False,False,False,False,False,False,False,False,False,False,False,Night,Night,Night,Day
A-4539424,Source1,2,2022-07-31 17:02:11.000000000,2022-07-31 18:23:26.000000000,35.008565999999995,-81.101907,35.007942,-81.10162700000002,0.046,Incident on HANDS MILL HWY near MT GALLANT RD Drive with caution., Mount Gallant Rd,Rock Hill,York,SC,29732-8801,US,US/Eastern,KUZA,2022-07-31 16:54:00,91.0,91.0,52.0,29.38,10.0,WSW,16.0,0.0,Partly Cloudy,False,False,False,False,False,False,False,False,False,False,False,True,False,Day,Day,Day,Day
A-5651878,Source1,2,2021-03-13 21:27:42,2021-03-13 23:28:14,44.934924,-95.408827,44.938202,-95.401876,0.409,Accident at Highway 23 SE., Highway 23 SE,Maynard,Chippewa,MN,56260,US,US/Central,KGDB,2021-03-13 21:35:00,46.0,43.0,66.0,29.21,10.0,N,7.0,0.0,Fair,False,False,False,False,False,False,False,False,False,False,False,False,False,Night,Night,Night,Night
A-1482033,Source2,2,2020-06-19 17:43:22,2020-06-19 18:45:58,33.50951,-82.02626,,,0.0,Accident on GA-28 Washington Rd both ways around Beverly Dr.,Washington Rd,Augusta,Richmond,GA,30909-2245,US,US/Eastern,KDNL,2020-06-19 17:53:00,88.0,88.0,43.0,29.56,10.0,CALM,0.0,0.0,Fair,False,False,False,False,False,False,False,False,False,False,False,False,False,Day,Day,Day,Day
A-1282855,Source2,2,2020-11-03 06:45:56,2020-11-03 08:15:29,42.40807,-73.6912,,,0.0,Right hand shoulder blocked due to accident on US-9 Kinderhook St Southbound after NY-9H.,State Route 9H,Valatie,Columbia,NY,12184-5415,US,US/Eastern,KPSF,2020-11-03 06:52:00,34.0,26.0,87.0,28.5,1.0,WNW,10.0,0.02,Light Snow,False,False,False,False,False,False,False,False,False,False,False,False,False,Day,Day,Day,Day
A-3756582,Source1,2,2022-04-28 16:32:47,2022-04-28 16:53:34,30.180175,-81.739959,30.186885,-81.739257,0.466,Stationary traffic on FL-21 from FL-224/Loch Rane Blvd/Kingsley Ave (FL-21) to Wells Rd (FL-21) due to accident., Blanding Blvd,Orange Park,Clay,FL,32073-2622,US,US/Eastern,KNIP,2022-04-28 16:53:00,76.0,76.0,46.0,30.06,10.0,ENE,17.0,0.0,Partly Cloudy,False,False,False,False,False,False,False,False,False,False,False,False,False,Day,Day,Day,Day
A-2740190,Source2,2,2018-06-04 12:31:35,2018-06-04 13:01:28,35.410717,-80.845345,,,0.0,Accident on Gilead Rd at Sherwood Dr.,Gilead Rd,Huntersville,Mecklenburg,NC,28078-7825,US,US/Eastern,KJQF,2018-06-04 12:50:00,82.4,,30.0,29.94,10.0,WNW,5.8,,Clear,False,False,False,False,False,False,False,False,False,False,False,False,False,Day,Day,Day,Day
A-1747573,Source2,2,2019-10-11 11:43:31,2019-10-11 12:51:00,40.256592,-76.855949,,,0.0,Shoulder blocked due to accident on I-83 Northbound at Exit 44B 19th St.,S 19th St,Harrisburg,Dauphin,PA,17104-2906,US,US/Eastern,KCXY,2019-10-11 11:56:00,70.0,70.0,32.0,29.79,10.0,ENE,9.0,0.0,Fair,False,False,False,False,False,False,False,False,False,False,False,False,False,Day,Day,Day,Day
A-6939275,Source1,2,2020-12-02 01:35:00,2020-12-02 04:47:17,37.89722,-122.080303,37.89807,-122.090043,0.534,NB 680 JSO 24. WHI FORD TRANSIT VS HOND CIV[Shared],CA-24 W,Walnut Creek,Contra Costa,CA,94597,US,US/Pacific,KCCR,2020-12-02 01:53:00,40.0,40.0,77.0,30.08,10.0,CALM,0.0,0.0,Fair,False,False,False,False,False,False,False,False,False,False,False,False,False,Night,Night,Night,Night
A-1961221,Source2,3,2019-07-10 17:23:21,2019-07-10 17:53:02,33.732822,-117.989601,,,0.0,#3 lane blocked due to accident on I-405 Northbound at Exit 16 CA-39 Beach Blvd.,I-405 S,Huntington Beach,Orange,CA,92647,US,US/Pacific,KSLI,2019-07-10 16:58:00,78.0,78.0,54.0,29.95,10.0,SSW,10.0,0.0,Fair,False,False,False,False,False,False,False,False,False,False,False,False,False,Day,Day,Day,Day
A-1535568,Source3,2,2020-03-19 11:27:38,2020-03-19 12:27:16,34.265713,-118.450562,,,0.0,Accident on CA-118 Eastbound at Exits 42A 42B Sepulveda Blvd.,CA-118 E,Mission Hills,Los Angeles,CA,91345,US,US/Pacific,KWHP,2020-03-19 11:55:00,50.0,50.0,82.0,29.03,2.0,CALM,0.0,,Rain,False,False,False,False,False,False,False,False,False,False,False,False,False,Day,Day,Day,Day
A-4051469,Source1,2,2022-06-10 19:03:00,2022-06-10 20:30:48,27.114219,-80.264318,27.100903,-80.257739,1.005,Incident on I-95 SB near EXIT 101 Expect long delays.,I-95 S,Stuart,Martin,FL,34997,US,US/Eastern,KSUA,2022-06-10 18:47:00,,,,,4.0,S,8.0,0.0,Rain,False,False,False,False,True,False,False,False,False,False,False,False,False,Day,Day,Day,Day
A-2058,Source2,2,2016-07-04 13:11:30,2016-07-04 13:56:30,38.363625,-122.293732,,,0.0,Accident on Silverado Trl at Shady Oaks Dr.,Shady Oaks Dr,Napa,Napa,CA,94558-1112,US,US/Pacific,KAPC,2016-07-04 12:54:00,69.1,,61.0,30.0,10.0,SSW,19.6,,Clear,False,False,False,False,False,False,False,False,False,False,False,False,False,Day,Day,Day,Day
A-2665622,Source2,3,2018-08-24 16:53:59,2018-08-24 17:53:40,41.83617,-71.415436,,,0.0,Accident on I-95 Southbound at Exit 23 RI-146 Louisquisset Pike.,I-95 S,Providence,Providence,RI,02908,US,US/Eastern,KSFZ,2018-08-24 16:56:00,78.1,,58.0,30.05,10.0,SW,6.9,,Clear,False,False,False,False,False,False,False,False,False,False,False,False,False,Day,Day,Day,Day
A-3634473,Source1,3,2017-07-04 22:23:30,2017-07-05 04:23:30,39.02608,-76.44008000000002,39.02584,-76.4384,0.092,At Whitehall Rd/Exit 30 - Accident.,Revell Hwy W,Annapolis,Anne Arundel,MD,21409,US,US/Eastern,KNAK,2017-07-04 21:54:00,73.9,,100.0,30.07,8.0,Calm,,0.05,Light Rain,False,False,False,False,False,False,False,False,False,False,False,False,False,Night,Night,Night,Day
A-1101824,Source2,2,2021-03-29 22:20:08,2021-03-29 23:34:38,35.104328,-80.985573,,,0.0,Accident on Rivergate Pkwy at NC-49 York Rd.,S Tryon St,Charlotte,Mecklenburg,NC,28273-7203,US,US/Eastern,KCLT,2021-03-29 21:52:00,57.0,57.0,39.0,29.45,10.0,ESE,6.0,0.0,Fair,False,False,True,False,False,False,False,False,False,False,False,True,False,Night,Night,Night,Night
A-1527777,Source2,2,2020-03-13 10:07:20,2020-03-13 11:08:48,35.435349,-97.485779,,,0.0,Accident on 29th St at Prospect Ave.,SE 29th St,Oklahoma City,Oklahoma,OK,73129-7618,US,US/Central,KTIK,2020-03-13 09:56:00,45.0,37.0,81.0,28.8,6.0,NE,16.0,0.04,Rain,False,False,False,False,False,False,False,False,False,False,False,True,False,Day,Day,Day,Day
A-96698,Source2,2,2016-09-09 13:41:55,2016-09-09 14:26:55,33.93531,-118.016769,,,0.0,Accident on Colima Rd near Mulberry Dr.,Mulberry Dr,Whittier,Los Angeles,CA,90604,US,US/Pacific,KFUL,2016-09-09 13:53:00,84.0,,41.0,29.94,10.0,SW,6.9,,Clear,False,False,False,False,False,False,False,False,False,False,False,True,False,Day,Day,Day,Day
A-11891,Source2,2,2017-01-19 21:27:44,2017-01-19 21:56:38,37.397491,-122.157906,,,0.01,Accident on County Hwy-G3 Page Mill Rd Northbound at Deer Creek Rd.,Page Mill Rd,Palo Alto,Santa Clara,CA,94304,US,US/Pacific,KPAO,2017-01-19 20:47:00,53.6,,72.0,29.78,10.0,South,10.4,,Mostly Cloudy,False,False,False,False,False,False,False,False,False,False,False,True,False,Night,Night,Night,Night
A-6592624,Source1,2,2020-12-03 14:48:30,2020-12-04 03:54:13,35.054707,-80.851618,35.056684000000004,-80.849855,0.1689999999999999,Slow traffic on US-521 N from Costigan Ln to John J Delaney Dr due to accident., Ballantyne Commons Pkwy,Charlotte,Mecklenburg,NC,28277,US,US/Eastern,KEQY,2020-12-03 14:53:00,56.0,56.0,32.0,29.53,10.0,SW,7.0,0.0,Fair,False,False,False,False,False,False,False,False,False,False,False,False,False,Day,Day,Day,Day
A-922105,Source2,2,2021-08-27 05:39:02,2021-08-27 06:08:12,34.17366,-82.067711,,,0.0,Accident on SC-34 Ninety Six Hwy at Butler Cir.,Butler Cir,Ninety Six,Greenwood,SC,29666-8640,US,US/Eastern,KGRD,2021-08-27 05:56:00,68.0,68.0,100.0,29.48,8.0,CALM,0.0,0.0,Fair,False,False,False,False,False,False,False,False,False,False,False,False,False,Night,Night,Night,Day
A-6126909,Source1,2,2021-11-29 18:43:16,2021-11-29 20:43:16,45.991278,-118.387297,45.988898,-118.387283,0.1639999999999999,An unconfirmed report of hazardous debris has been received. Use caution.,Oregon Washington Hwy,Milton Freewater,Umatilla,OR,97862,US,US/Pacific,KALW,2021-11-29 18:53:00,53.0,53.0,59.0,28.97,10.0,SSE,12.0,0.0,Fair,False,False,False,False,False,False,False,False,False,False,False,False,False,Night,Night,Night,Night
A-189599,Source2,2,2016-10-20 07:15:39,2016-10-20 07:45:05,43.02771,-85.803139,,,0.01,Accident on 8th Ave at M-11 Ironwood Dr.,Ironwood Dr NW,Grand Rapids,Ottawa,MI,49534,US,US/Eastern,KGRR,2016-10-20 06:53:00,55.0,,83.0,30.1,10.0,North,4.6,,Overcast,False,False,False,False,False,False,False,False,False,False,False,False,False,Night,Night,Day,Day
A-2106159,Source2,2,2019-05-16 05:52:17,2019-05-16 06:52:07,30.49268,-91.155563,,,0.0,Accident on Evangeline St at LA-67 Plank Rd.,Evangeline St,Baton Rouge,East Baton Rouge,LA,70805-3523,US,US/Central,KBTR,2019-05-16 05:53:00,66.0,66.0,96.0,29.97,7.0,CALM,0.0,0.0,Fair,False,False,False,False,False,False,False,False,False,False,False,True,False,Night,Day,Day,Day
A-5223404,Source1,2,2022-12-09 03:04:00,2022-12-09 04:22:38,33.939332,-117.186609,33.93933,-117.191487,0.28,Incident on CA-60 WB near NASON ST Drive with caution.,CA-60 W,Moreno Valley,Riverside,CA,92555,US,US/Pacific,KRIV,2022-12-09 02:55:00,35.0,35.0,90.0,28.52,10.0,CALM,0.0,0.0,Fair,False,False,False,False,False,False,False,False,False,False,False,False,False,Night,Night,Night,Night
A-2444416,Source2,2,2018-11-09 17:52:09,2018-11-09 18:21:52,41.976025,-70.710495,,,0.0,Accident on MA-3 Northbound at Exit 8 Kingston Collection Way.,MA-3 N,Kingston,Plymouth,MA,02364,US,US/Eastern,KPYM,2018-11-09 17:52:00,52.0,,63.0,30.19,10.0,ENE,8.1,0.0,Light Rain,False,False,False,False,False,False,False,False,False,False,False,False,False,Night,Night,Night,Day
A-3232640,Source2,3,2017-10-09 22:30:27,2017-10-09 23:00:06,36.058872,-79.082375,,,0.0,Shoulder blocked due to accident on I-85 Northbound at Exit 165 NC-86.,I-85 N,Hillsborough,Orange,NC,27278,US,US/Eastern,KIGX,2017-10-09 22:56:00,75.0,75.0,94.0,29.51,10.0,CALM,0.0,0.0,Fair,False,False,False,False,False,False,False,False,False,False,False,False,False,Night,Night,Night,Night
A-5644781,Source1,2,2021-08-26 16:16:30,2021-08-26 18:07:30,47.21062302566904,-122.33622908533889,47.21352302566904,-122.34194908533888,0.335,Stationary traffic on WA-167 from WA-161/N Meridian (WA-167) to 66th Avenue Bridge (River Rd/WA-167) due to accident., 70th Ave E,Puyallup,Pierce,WA,98371,US,US/Pacific,KPLU,2021-08-26 15:58:00,66.0,66.0,77.0,29.73,10.0,W,8.0,0.0,Cloudy,False,False,False,False,False,False,False,False,False,False,False,False,False,Day,Day,Day,Day
A-716795,Source2,2,2022-02-09 08:00:15,2022-02-09 08:45:10,41.790321,-88.012642,,,0.0,Crash on Carpenter St near Maple Ave.,Maple Ave,Downers Grove,DuPage,IL,60515-4840,US,US/Central,KMDW,2022-02-09 07:53:00,34.0,27.0,75.0,29.07,10.0,WSW,9.0,0.0,Mostly Cloudy,False,False,False,False,False,False,False,False,False,False,False,False,False,Day,Day,Day,Day
A-3130315,Source2,2,2017-12-14 04:53:45,2017-12-14 05:23:26,39.827854,-123.606247,,,0.0,Accident on US-101 Northbound near Tan Oak Park.,Highway 101 N,Leggett,Mendocino,CA,95585-8912,US,US/Pacific,KO87,2017-12-14 04:55:00,39.0,34.0,93.0,29.7,10.0,SE,8.0,0.0,Fair,False,False,False,False,False,False,False,False,False,False,False,False,False,Night,Night,Night,Night
A-817904,Source2,2,2021-11-16 08:58:58,2021-11-16 09:28:40,43.141621,-77.632858,,,0.5099999904632568,Accident on Columbia Ave between Genesee St and Epworth St.,Epworth St,Rochester,Monroe,NY,14611-3538,US,US/Eastern,KROC,2021-11-16 08:54:00,38.0,30.0,79.0,29.49,10.0,W,12.0,0.0,Mostly Cloudy,False,False,False,False,False,False,False,False,False,False,False,False,False,Day,Day,Day,Day
A-6902130,Source1,2,2020-11-17 14:42:00,2020-11-18 02:55:00,34.072274,-117.614316,34.067368,-117.564442,2.875,Slow traffic on San Bernardino Fwy E - I-10 E from 4th St (I-10) to Milliken Ave (I-10) due to accident.,I-10 E,Ontario,San Bernardino,CA,91764,US,US/Pacific,KONT,2020-11-17 14:53:00,81.0,81.0,12.0,28.96,10.0,W,12.0,0.0,Fair,False,False,False,False,False,False,False,False,False,False,False,False,False,Day,Day,Day,Day
A-4727987,Source1,2,2022-12-14 18:04:00,2022-12-14 18:18:00,45.671694,-111.002942,45.667713,-110.986924,0.821,Slow traffic on I-90 E - US-191 N from US-191/Main St/Exit 309 (I-90) to Bozeman Trail Rd/Exit 313 (I-90) due to accident.,I-90 E,Bozeman,Gallatin,MT,59715,US,US/Mountain,KBZN,2022-12-14 18:12:00,20.0,20.0,92.0,25.62,1.0,CALM,0.0,0.0,Light Snow,False,False,False,False,False,False,False,False,False,False,False,False,False,Night,Night,Night,Day
A-6605432,Source1,2,2020-10-29 18:20:53,2020-10-29 19:36:00,46.340043,-94.519365,46.340185,-94.506294,0.624,Incident on MN-210 near 49TH AVE Drive with caution., State Highway 210 SW,Pillager,Cass,MN,56473,US,US/Central,KBRD,2020-10-29 17:53:00,33.0,33.0,50.0,28.78,10.0,CALM,0.0,0.0,Cloudy,False,False,False,False,False,False,False,False,False,False,False,False,False,Night,Day,Day,Day
A-273444,Source2,3,2017-01-26 09:40:19,2017-01-26 10:09:39,32.677551,-97.080254,,,0.01,Right lane blocked and right hand shoulder blocked due to accident on I-20 Westbound at New York Ave.,New York Ave,Arlington,Tarrant,TX,76018,US,US/Central,KGKY,2017-01-26 09:53:00,42.1,35.2,45.0,30.34,10.0,North,12.7,,Clear,False,False,False,False,False,False,False,False,False,False,False,False,False,Day,Day,Day,Day
A-5416704,Source1,2,2022-02-13 07:13:16.000000000,2022-02-13 08:32:19.000000000,33.016132,-80.126671,33.017024,-80.12581,0.079,Incident on ROYLE RD near KIMBAL LN Expect delays., Kimball Ln,Ladson,Berkeley,SC,29456-3429,US,US/Eastern,KCHS,2022-02-13 06:56:00,55.0,55.0,83.0,29.96,10.0,W,5.0,0.0,Cloudy,False,False,False,False,False,False,False,False,False,False,False,False,False,Day,Day,Day,Day
A-3806812,Source1,2,2022-12-11 10:48:30,2022-12-11 11:17:00,34.496852000000004,-120.230847,34.503364000000005,-120.226666,0.509,Stationary traffic on US-101 N from Gavito State Park (US-101) to CA-1 (North) (US-101) due to accident., US Highway 101,Goleta,Santa Barbara,CA,93117-9713,US,US/Pacific,KSBA,2022-12-11 10:53:00,52.0,52.0,66.0,29.92,8.0,NNW,9.0,0.0,Light Rain,False,False,False,False,False,False,False,False,False,False,False,False,False,Day,Day,Day,Day
A-2383074,Source2,2,2018-12-06 22:54:47,2018-12-06 23:24:32,35.377331,-97.264999,,,0.0,Accident on 89th St at Choctaw Rd.,SE 89th St,Choctaw,Cleveland,OK,73020-4511,US,US/Central,KTIK,2018-12-06 22:56:00,37.0,30.4,73.0,30.39,10.0,NE,9.2,0.0,Light Drizzle,False,False,False,False,False,False,False,False,False,True,False,False,False,Night,Night,Night,Night
A-2676501,Source2,3,2018-08-29 10:40:02,2018-08-29 11:24:51,31.738951,-106.324051,,,0.0,Accident on I-10 Eastbound at Exit 30 Gateway Blvd.,I-10 E,El Paso,El Paso,TX,79907,US,US/Mountain,KELP,2018-08-29 10:51:00,89.1,,19.0,29.84,10.0,Calm,,,Scattered Clouds,False,False,False,False,False,False,False,False,False,False,False,False,False,Day,Day,Day,Day
A-1737481,Source2,2,2019-10-07 10:17:40,2019-10-07 10:47:27,35.292969,-80.838249,,,0.0,Accident on Statesville Rd at Lake Rd.,Lake Rd,Charlotte,Mecklenburg,NC,28269-4399,US,US/Eastern,KJQF,2019-10-07 09:55:00,72.0,72.0,73.0,29.42,10.0,CALM,0.0,0.0,Fair,False,False,False,False,False,False,False,False,False,False,False,False,False,Day,Day,Day,Day
A-5265691,Source1,2,2022-01-14 16:42:00,2022-01-14 17:10:30,40.255124,-75.353262,40.249704,-75.348351,0.455,Stationary traffic on PA-63 from Freed Rd (Sumneytown Pike/PA-63) to I-476 (Sumneytown Pike/PA-63) due to accident.,Sumneytown Pike,Harleysville,Montgomery,PA,19438,US,US/Eastern,KPTW,2022-01-14 16:54:00,34.0,23.0,54.0,29.57,10.0,NNW,17.0,0.0,Fair,False,False,False,False,False,False,False,False,False,False,False,False,False,Day,Day,Day,Day
A-3119091,Source2,2,2017-12-11 08:01:54,2017-12-11 09:00:18,34.594414,-82.49868000000002,,,0.0,Accident on SC-20 Belton Hwy at Melvin Ln.,Melvin Ln,Williamston,Anderson,SC,29697-9364,US,US/Eastern,KGYH,2017-12-11 07:47:00,30.2,,80.0,30.14,10.0,Calm,,,Clear,False,False,False,False,False,False,False,False,False,False,False,False,False,Day,Day,Day,Day
A-2433344,Source2,2,2018-11-05 09:49:32,2018-11-05 10:19:21,41.258675,-95.941147,,,0.0,Accident on 19th St Northbound at US-6 Douglas St.,Douglas St,Omaha,Douglas,NE,68102,US,US/Central,KOMA,2018-11-05 09:52:00,45.0,39.3,86.0,29.63,7.0,SE,11.5,0.02,Light Rain,False,False,True,False,False,False,False,False,False,False,False,True,False,Day,Day,Day,Day
A-5325559,Source1,2,2022-04-19 17:33:30.000000000,2022-04-19 18:36:00.000000000,45.494016,-122.868472,45.495306,-122.88119,0.622,Stationary traffic on OR-8 from SW 185th Ave (OR-8) to SW 209th Ave (OR-8) due to accident., SW Tualatin Valley Hwy,Beaverton,Washington,OR,97003-3154,US,US/Pacific,KHIO,2022-04-19 17:53:00,48.0,45.0,80.0,29.66,10.0,SE,6.0,0.0,Cloudy,False,False,True,False,False,False,False,False,False,False,False,False,False,Day,Day,Day,Day
A-4583090,Source1,2,2022-01-11 13:50:53.000000,2022-01-11 15:11:20.000000,35.870343,-86.09642099999998,35.872045,-86.09723199999998,0.126,Incident on TN-145 NB near 2143 LOCKE CREEK RD RT Drive with caution., Pleasant Ridge Rd,Woodbury,Cannon,TN,37190,US,US/Central,KMQY,2022-01-11 13:53:00,44.0,44.0,24.0,29.85,10.0,CALM,0.0,0.0,Fair,False,False,False,False,False,False,False,False,False,False,False,False,False,Day,Day,Day,Day
A-3761533,Source1,2,2022-11-02 11:08:18,2022-11-02 13:53:25,39.439982,-84.33579499999998,39.444928,-84.332778,0.378,Incident on I-75 NB near OH-63 Right lane blocked. Expect delays.,State Route 63,Monroe,Warren,OH,45050,US,US/Eastern,KMWO,2022-11-02 11:15:00,51.0,51.0,,29.67,3.0,CALM,0.0,0.0,Fair,False,False,False,False,False,False,False,False,False,False,False,True,False,Day,Day,Day,Day
A-527891,Source2,2,2022-08-24 13:54:46,2022-08-24 14:24:02,41.077881,-114.572823,,,12.579999923706056,Crash on I-80 Eastbound from Exit 365 Nf-439 to Exit 373.,I-80 E,Wells,Elko,NV,89835,US,US/Pacific,K9BB,2022-08-24 13:56:00,88.0,88.0,14.0,24.86,10.0,VAR,6.0,0.0,Fair,False,False,False,False,False,False,False,False,False,False,False,False,False,Day,Day,Day,Day
A-2758498,Source2,2,2018-06-13 18:19:36,2018-06-13 19:04:18,35.260399,-80.855148,,,0.0,Accident on Beatties Ford Rd at Hildebrand St.,Beatties Ford Rd,Charlotte,Mecklenburg,NC,28216-4522,US,US/Eastern,KCLT,2018-06-13 17:52:00,84.9,,59.0,29.97,10.0,SW,10.4,,Scattered Clouds,False,False,False,False,False,False,False,False,False,False,False,False,False,Day,Day,Day,Day
A-191363,Source2,2,2016-08-29 08:54:32,2016-08-29 09:24:32,42.932346,-85.609596,,,0.0,Accident on Breton Rd between Elliott St and Englewood Dr.,Englewood Dr SE,Grand Rapids,Kent,MI,49506-4515,US,US/Eastern,KGRR,2016-08-29 08:53:00,69.1,,87.0,30.27,10.0,East,5.8,,Scattered Clouds,False,False,False,False,False,False,False,False,False,False,False,False,False,Day,Day,Day,Day
A-4565746,Source1,2,2023-01-05 01:50:00,2023-01-05 09:02:31,30.284797,-97.660293,30.284715,-97.6598,0.03,Incident on FM-969 near CRAIGWOOD DR Drive with caution., FM 969,Austin,Travis,TX,78724-5306,US,US/Central,KAUS,2023-01-05 01:53:00,38.0,38.0,89.0,29.59,10.0,CALM,0.0,0.0,Fair,False,False,False,False,False,False,False,False,False,False,False,False,False,Night,Night,Night,Night
A-3906995,Source1,2,2022-11-06 11:07:00,2022-11-06 11:38:00,38.818254,-121.54361000000002,38.839146,-121.543546,1.444,Stationary traffic on CA-99 from Howsley Rd (CA-99) to El Centro Blvd/CA-70 (CA-70/CA-99) due to accident.,,Pleasant Grove,Sutter,CA,95668,US,US/Pacific,KLHM,2022-11-06 11:15:00,59.0,59.0,55.0,29.77,10.0,S,10.0,0.0,Cloudy,False,False,False,False,True,False,False,False,False,False,False,False,False,Day,Day,Day,Day
A-3432403,Source1,2,2016-11-10 15:10:00,2016-11-10 21:10:00,35.39134,-97.55182,35.39134,-97.541861,0.561,Between Pennsylvania Ave/Exit 1 and Western Ave/Exit 2 - Accident.,US-62 E,Oklahoma City,Oklahoma,OK,73159,US,US/Central,KOKC,2016-11-10 14:52:00,70.0,,41.0,30.23,10.0,SSW,12.7,,Scattered Clouds,False,False,False,False,False,False,False,False,False,False,False,False,False,Day,Day,Day,Day
A-5602733,Source1,2,2021-12-12 13:05:19,2021-12-12 14:23:27,35.037443,-85.14392,35.038048,-85.143633,0.045,Incident on PEMBROOK LN near REGENCY CT Drive with caution.,Pembrook Ln,Chattanooga,Hamilton,TN,37421,US,US/Eastern,KCHA,2021-12-12 12:53:00,47.0,43.0,50.0,29.61,10.0,NNW,8.0,0.0,Fair,False,False,False,False,False,False,False,False,False,False,False,False,False,Day,Day,Day,Day
A-4440666,Source1,2,2022-11-03 14:16:00,2022-11-03 18:29:00,38.94070744,-77.13362575,38.96418744,-77.17599575,2.7960000000000003,Stationary traffic on George Washington Memorial Pkwy N from VA-123/Chain Bridge Rd (George Washington Pkwy) to I-495 (George Washington Pkwy) due to accident.,GW Pkwy,McLean,Fairfax,VA,22101,US,US/Eastern,KDCA,2022-11-03 13:52:00,69.0,69.0,54.0,30.34,10.0,ENE,3.0,0.0,Fair,False,False,False,False,False,False,False,False,False,False,False,False,False,Day,Day,Day,Day
A-2482996,Source2,3,2018-11-27 08:45:17,2018-11-27 09:15:09,32.794182,-96.814751,,,0.0,Accident on I-35E Northbound at Hi Line Dr.,US-77 S,Dallas,Dallas,TX,75207,US,US/Central,KDAL,2018-11-27 08:53:00,44.1,40.8,60.0,30.22,10.0,SW,5.8,,Partly Cloudy,False,False,False,False,False,False,False,False,False,False,False,True,False,Day,Day,Day,Day
A-1319019,Source2,2,2020-09-29 17:56:58,2020-09-29 18:56:38,33.197174,-87.51873,,,0.0,Left lane blocked due to accident on AL-215 Southbound at 13th Ave.,Veterans Memorial Pkwy,Tuscaloosa,Tuscaloosa,AL,35404-5813,US,US/Central,KTCL,2020-09-29 17:53:00,70.0,70.0,42.0,29.79,10.0,WNW,7.0,0.0,Fair,False,False,False,False,False,False,False,False,False,False,False,True,False,Day,Day,Day,Day
A-200393,Source2,2,2017-01-16 07:41:44,2017-01-16 08:11:33,41.012623,-73.850014,,,0.01,Accident on Saw Mill River Pkwy Southbound at Exit 17 County Hwy-134 Ashford Ave.,Saw Mill River Pkwy N,Dobbs Ferry,Westchester,NY,10522,US,US/Eastern,KHPN,2017-01-16 07:56:00,21.9,17.2,82.0,30.46,10.0,WNW,3.5,,Clear,False,False,False,False,False,False,False,False,False,False,False,True,False,Day,Day,Day,Day
A-1740379,Source2,2,2019-10-08 08:23:39,2019-10-08 09:25:47,27.859791,-82.647079,,,0.0,Accident on CR-803 Dr Martin Luther King Jr St at Executive Center Dr.,Executive Center Dr W,Saint Petersburg,Pinellas,FL,33702,US,US/Eastern,KSPG,2019-10-08 08:07:00,77.0,77.0,88.0,29.84,10.0,NE,12.0,0.0,Mostly Cloudy,False,False,True,False,False,False,False,False,False,False,False,True,False,Day,Day,Day,Day
A-5815112,Source1,2,2021-12-21 06:35:04,2021-12-21 08:08:50,38.908192,-94.523719,38.919237,-94.527616,0.7909999999999999,Incident on I-49 near BLUE RIDGE BLVD Drive with caution.,I-49 N,Grandview,Jackson,MO,64030,US,US/Central,KLXT,2021-12-21 06:53:00,24.0,18.0,75.0,28.95,10.0,SSE,5.0,0.0,Fair,False,False,False,False,False,False,False,False,False,False,False,False,False,Night,Night,Day,Day
A-412263,Source2,2,2017-04-27 06:56:48,2017-04-27 07:26:34,25.590921,-80.362213,,,0.01,Accident on 106th Ave at Marlin Rd.,Marlin Rd,Cutler Bay,Miami-Dade,FL,33157-7728,US,US/Eastern,KTMB,2017-04-27 06:53:00,75.9,,87.0,29.9,10.0,SE,3.5,,Clear,False,False,True,False,False,False,False,False,False,True,False,True,False,Day,Day,Day,Day
A-1687938,Source2,2,2019-12-02 17:50:53,2019-12-02 18:49:29,39.13689,-77.718521,,,0.1599999964237213,Queueing traffic and through lane closed due to accident on VA-7-BR Main St Westbound between VA-690 23rd St and Hall Ave.,W Main St,Purcellville,Loudoun,VA,20132-3032,US,US/Eastern,KJYO,2019-12-02 17:52:00,41.0,34.0,76.0,29.32,10.0,NW,12.0,0.0,Light Rain,False,False,False,False,False,False,False,False,False,False,False,False,False,Night,Night,Day,Day
A-6896756,Source1,2,2020-12-12 06:33:18,2020-12-12 09:18:52,42.437622,-123.279295,42.4379,-123.286458,0.366,Incident on I-5 NB near MP 55 Drive with caution.,I-5 N,Grants Pass,Josephine,OR,97526,US,US/Pacific,KSXT,2020-12-12 06:48:00,29.0,20.0,96.0,26.1,1.0,ESE,10.0,0.0,Fog,False,False,False,False,False,False,False,False,False,False,False,False,False,Night,Night,Day,Day
A-4639657,Source1,2,2022-10-09 22:08:51.000000000,2022-10-10 00:09:59.000000000,40.861909,-73.912544,40.861943,-73.912738,0.01,Incident on W FORDHAM RD near W FORDHAM RD Drive with caution.,Major Deegan Expy N,Bronx,Bronx,NY,10468,US,US/Eastern,KLGA,2022-10-09 21:51:00,59.0,59.0,41.0,30.13,10.0,WSW,6.0,0.0,Fair,False,False,True,False,False,False,False,False,False,False,False,True,False,Night,Night,Night,Night
A-286854,Source2,3,2016-09-26 06:37:08,2016-09-26 07:21:19,32.868053,-96.6679,,,0.0,Accident on I-635 Eastbound at TX-78 Garland Ave.,LBJ Fwy E,Dallas,Dallas,TX,75218,US,US/Central,KDAL,2016-09-26 06:53:00,64.9,,90.0,30.11,4.0,NNE,15.0,0.3,Light Rain,False,False,False,False,False,False,False,False,False,False,False,False,False,Night,Night,Day,Day
A-3272517,Source2,2,2017-10-27 16:32:57,2017-10-27 17:02:36,35.47862199999999,-97.561996,,,0.0,Accident on 10th St Westbound at Miller Blvd.,NW 10th St,Oklahoma City,Oklahoma,OK,73107-5410,US,US/Central,KPWA,2017-10-27 16:53:00,48.0,,26.0,30.15,10.0,North,18.4,,Clear,False,False,False,False,False,False,False,False,False,False,False,False,False,Day,Day,Day,Day
A-5365399,Source1,2,2022-07-10 19:39:00.000000000,2022-07-10 21:56:30.000000000,33.205096999999995,-80.40559300000002,33.179403,-80.37638100000002,2.45,Stationary traffic on I-26 E from SC-453 (I-26) to Ridgeville Rd (I-26) due to accident.,I-26 E,Harleyville,Dorchester,SC,29448,US,US/Eastern,KDYB,2022-07-10 19:35:00,75.0,75.0,100.0,29.86,1.0,CALM,0.0,0.0,Rain,False,False,False,False,False,False,False,False,False,False,False,False,False,Day,Day,Day,Day
A-6510707,Source1,2,2021-02-05 01:48:00,2021-02-05 03:32:27,43.108597,-75.256843,43.10840200000001,-75.256997,0.016,Incident on ANDES AVE near WHITESBORO ST Expect long delays., Andes Ave,Utica,Oneida,NY,13502-3348,US,US/Eastern,KRME,2021-02-05 01:53:00,25.0,16.0,78.0,29.18,10.0,SE,8.0,0.0,Fair,False,False,False,False,False,False,False,False,False,False,False,False,False,Night,Night,Night,Night
A-6049134,Source1,2,2021-06-06 19:52:26,2021-06-06 21:14:59,40.71639418582574,-73.97572159731875,40.70870418582575,-73.99827159731876,1.295,Crash on Franklin D. Roosevelt Drive southbound at Grand Street (New York) 2 Right lanes of 3 lanes blocked,FDR Dr S,New York,New York,NY,10002,US,US/Eastern,KJRB,2021-06-06 19:51:00,86.0,86.0,48.0,29.91,10.0,VAR,3.0,0.0,Mostly Cloudy,False,False,False,False,False,False,False,False,False,False,False,False,False,Day,Day,Day,Day
A-6820420,Source1,2,2020-12-29 08:34:00,2020-12-29 10:43:42,34.426713,-117.380521,34.426713,-117.380349,0.01,SB 15 JNO MAIN. IN CD,Barstow Fwy S,Hesperia,San Bernardino,CA,92345,US,US/Pacific,KVCV,2020-12-29 08:45:00,,,,27.13,10.0,CALM,0.0,0.0,Fair,False,False,False,False,False,False,False,False,False,False,False,False,False,Day,Day,Day,Day
A-6258784,Source1,2,2021-12-24 12:38:41,2021-12-24 14:18:10,40.610482,-74.119339,40.60828,-74.147263,1.473,Stationary traffic on I-278 W - Staten Island Expy W from Slosson Ave exit [12] to Victory Blvd exit [10] due to accident.,I-278 W,Staten Island,Richmond,NY,10314,US,US/Eastern,KLDJ,2021-12-24 12:35:00,37.0,33.0,78.0,30.06,10.0,NNE,5.0,0.0,Cloudy,False,False,False,False,False,False,False,False,False,False,False,False,False,Day,Day,Day,Day
A-1540942,Source2,3,2020-03-25 08:16:20,2020-03-25 10:03:06,34.07346,-80.950005,,,0.0,Accident on I-20 Westbound at Exit 74 US-1 Two Notch Rd.,I-20 E,Columbia,Richland,SC,29223,US,US/Eastern,KCUB,2020-03-25 07:53:00,64.0,64.0,93.0,29.6,10.0,WNW,7.0,0.0,Cloudy,False,False,False,False,False,False,False,False,False,False,False,False,False,Day,Day,Day,Day
A-5415803,Source1,2,2023-01-15 01:59:00.000000000,2023-01-15 04:08:59.000000000,34.148654,-118.051042,34.148658000000005,-118.050181,0.049,Accident on I-210 E - Foothill Fwy E from Michillinda Ave (I-210) to Baldwin Ave (I-210).,Foothill Fwy E,Arcadia,Los Angeles,CA,91006,US,US/Pacific,KEMT,2023-01-15 01:53:00,55.0,55.0,93.0,29.71,9.0,WSW,3.0,0.0,Partly Cloudy,False,False,False,False,False,False,False,False,False,False,False,False,False,Night,Night,Night,Night
A-2846708,Source2,3,2018-05-25 18:43:33,2018-05-25 19:28:10,41.05513,-73.810417,,,0.0,Accident on I-287 Cross Westchester Expy Westbound at Exit 3 Sprain Brook Pkwy.,Sprain Brook Pkwy S,Elmsford,Westchester,NY,10523,US,US/Eastern,KHPN,2018-05-25 18:56:00,82.9,,33.0,29.81,10.0,WSW,5.8,,Clear,False,False,False,False,True,False,False,False,False,False,False,False,False,Day,Day,Day,Day
A-3759107,Source1,2,2022-08-27 04:57:00,2022-08-27 06:35:17,38.057675,-121.361453,38.057662,-121.361061,0.021,Incident on W EIGHT MILE RD near OAK GROVE PARK Expect delays.,Oak Grove Park,Stockton,San Joaquin,CA,95209,US,US/Pacific,KSCK,2022-08-27 04:55:00,64.0,64.0,78.0,29.76,10.0,WNW,7.0,0.0,Fair,False,False,False,False,False,False,False,False,False,False,False,False,False,Night,Night,Night,Day
A-611009,Source2,1,2022-05-25 17:18:22,2022-05-25 18:48:10,34.886608,-82.067291,,,0.0,Crash on SC-290 Moore Duncan Hwy at SC-296 Reidville Rd.,Reidville Rd,Duncan,Spartanburg,SC,29334,US,US/Eastern,KGSP,2022-05-25 16:53:00,67.0,67.0,76.0,29.18,10.0,NE,9.0,0.0,Cloudy,False,False,False,False,False,False,False,False,False,False,False,True,False,Day,Day,Day,Day
A-4953572,Source1,2,2023-02-16 07:31:09,2023-02-16 09:44:46,45.84209,-92.364773,45.831194,-92.365276,0.753,WIS 35 South CLOSED from Kruger Rd to Midtown Rd because of a crash., State Road 35,Webster,Burnett,WI,54893-8533,US,US/Central,KRZN,2023-02-16 07:35:00,5.0,-4.0,77.0,29.15,10.0,N,5.0,0.0,Fair,False,False,False,False,False,False,False,False,False,False,False,False,False,,,,
A-1664560,Source2,3,2020-02-24 08:03:01,2020-02-24 08:32:44,28.010769,-82.453926,,,0.0,Left lane blocked due to accident on I-275 Southbound at Exit 48 Sligh Ave.,I-275 N,Tampa,Hillsborough,FL,33604,US,US/Eastern,KTPA,2020-02-24 07:53:00,65.0,65.0,70.0,30.06,10.0,SE,7.0,0.0,Mostly Cloudy,False,False,False,False,False,False,False,False,False,False,False,False,False,Day,Day,Day,Day
A-5042006,Source1,2,2022-08-06 17:31:00,2022-08-06 20:03:15,33.86968017,-117.67154574,33.87980017,-117.56488574,6.158,Accident on Riverside Fwy E - CA-91 E from Lincoln Ave to N Main St.,CA-91 Express Lanes,Corona,Riverside,CA,92879,US,US/Pacific,KAJO,2022-08-06 17:56:00,92.0,92.0,30.0,29.26,10.0,W,10.0,0.0,Fair,False,False,False,False,False,False,False,False,False,False,False,False,False,Day,Day,Day,Day
A-6067575,Source1,2,2021-12-27 14:07:19,2021-12-27 22:52:19,42.626953,-123.382416,42.636316,-123.384961,0.66,Hazardous tree or vegetation is causing no to minimum delays. Use caution.,I-5 N,Wolf Creek,Josephine,OR,97497,US,US/Pacific,KSXT,2021-12-27 13:56:00,23.0,,88.0,25.81,10.0,,,0.01,Cloudy,False,False,False,False,False,False,False,False,False,False,False,False,False,Day,Day,Day,Day
A-285846,Source2,2,2016-09-20 14:12:50,2016-09-20 15:12:35,30.241409,-97.785385,,,0.0,Accident on TX-343 Lamar Blvd at Westrock Dr.,S Lamar Blvd,Austin,Travis,TX,78704-5807,US,US/Central,KATT,2016-09-20 13:51:00,96.1,,44.0,30.01,10.0,Calm,,,Partly Cloudy,False,False,False,False,False,False,False,False,False,False,False,False,False,Day,Day,Day,Day
A-2566232,Source2,2,2018-09-06 16:09:10,2018-09-06 16:38:50,41.80862800000001,-71.44079599999998,,,0.0,Accident on RI-10 Southbound at Exit 5 Huntington Ave.,Union Ave,Providence,Providence,RI,02909,US,US/Eastern,KPVD,2018-09-06 15:51:00,91.9,,55.0,30.02,10.0,West,8.1,,Scattered Clouds,False,False,False,False,False,False,False,False,False,False,False,True,False,Day,Day,Day,Day
A-6545434,Source1,2,2021-01-20 20:51:19,2021-01-20 22:52:05,44.745436,-93.28209,44.746236,-93.2843,0.122,Accident on Nicollet Ave (CR-42) from I-35W/Buck Hill Rd (CR-42) to County Hwy-42.,County Road 42 W,Burnsville,Dakota,MN,55306,US,US/Central,KLVN,2021-01-20 20:55:00,36.0,,60.0,28.6,10.0,,,0.0,Fair,False,False,False,False,False,False,False,False,False,False,False,True,False,Night,Night,Night,Night
A-3737283,Source1,2,2023-01-28 10:59:30,2023-01-28 11:24:00,32.896092,-96.89469,32.895968,-96.898554,0.224,Slow traffic on Royal Ln from TX-354/Harry Hines Blvd to I-35E/Stemmons Fwy due to accident., Royal Ln,Dallas,Dallas,TX,75229-3418,US,US/Central,KDAL,2023-01-28 10:53:00,52.0,52.0,89.0,29.55,3.0,S,8.0,0.0,Cloudy,False,False,False,False,False,False,False,False,False,False,False,False,False,Day,Day,Day,Day
A-3190164,Source2,2,2017-11-16 13:52:06,2017-11-16 14:21:56,33.552399,-112.221466,,,0.0,Accident on 75th Dr at Northern Ave.,W Northern Ave,Glendale,Maricopa,AZ,85303-1120,US,US/Mountain,KGEU,2017-11-16 13:50:00,80.6,,17.0,29.94,10.0,Calm,,,Scattered Clouds,False,False,False,False,False,False,False,False,False,False,False,False,False,Day,Day,Day,Day
A-1403196,Source2,2,2020-07-28 02:06:54,2020-07-28 04:06:39,37.955482,-122.053391,,,0.0,Right hand shoulder blocked due to accident on CA-242 Northbound at I-680 Exits 49 49A 49B 50.,CA-242 N,Concord,Contra Costa,CA,94520,US,US/Pacific,KCCR,2020-07-28 01:53:00,60.0,60.0,67.0,29.82,10.0,W,6.0,0.0,Fair,False,False,False,False,False,False,False,False,False,False,False,False,False,Night,Night,Night,Night
A-5279,Source2,3,2016-12-01 22:07:18,2016-12-01 22:37:03,37.702499,-122.01693,,,0.01,Accident on I-580 Eastbound at Exit 39 Eden Canyon Rd.,I-580 E,Castro Valley,Alameda,CA,94552,US,US/Pacific,KHWD,2016-12-01 21:54:00,46.0,43.1,63.0,30.18,10.0,ENE,5.8,,Clear,False,False,False,False,False,False,False,False,False,False,False,False,False,Night,Night,Night,Night
A-5277938,Source1,2,2023-01-25 16:59:28,2023-01-25 18:17:34,44.791066,-94.212517,44.796073,-94.233204,1.072,Incident on MN-22 near JADE AVE Drive with caution., Highway 22,Glencoe,McLeod,MN,55336-4924,US,US/Central,KGYL,2023-01-25 16:55:00,22.0,9.0,81.0,28.85,4.0,NW,14.0,0.0,Haze,False,False,False,False,False,False,False,False,False,False,False,False,False,Day,Day,Day,Day
A-6258555,Source1,2,2021-09-16 16:14:28,2021-09-16 17:27:47,25.68515,-80.400587,25.685901,-80.40190799999998,0.097,Slow traffic on FL-94 from SW 89th Ter to SW 132nd Ave due to accident.,SW 127th Ave,Miami,Miami-Dade,FL,33186,US,US/Eastern,KTMB,2021-09-16 16:15:00,83.0,83.0,79.0,29.96,10.0,NW,13.0,0.0,Partly Cloudy,False,False,False,False,False,False,False,False,False,False,False,False,False,Day,Day,Day,Day
A-555260,Source2,2,2022-07-26 12:16:25,2022-07-26 12:45:55,33.231251,-87.57659100000002,,,0.0,Two lanes blocked due to crash on US-43 Lurleen B Wallace Blvd Southbound before 22nd St.,22nd St,Northport,Tuscaloosa,AL,35476-3931,US,US/Central,KTCL,2022-07-26 11:53:00,87.0,87.0,65.0,29.95,10.0,VAR,5.0,0.0,Partly Cloudy,False,False,False,False,False,False,False,False,False,False,False,False,False,Day,Day,Day,Day
A-5740705,Source1,2,2021-08-31 13:02:00,2021-08-31 15:06:46,25.810617,-80.313379,25.808329,-80.31331800000002,0.158,Slow traffic on FL-969 from NW 58th St (NW 72nd Ave/Milam Dairy Rd) to NW 25th St (NW 72nd Ave/Milam Dairy Rd) due to accident., NW 72nd Ave,Miami,Miami-Dade,FL,33166,US,US/Eastern,KMIA,2021-08-31 12:53:00,91.0,91.0,55.0,29.93,10.0,WSW,6.0,0.0,Mostly Cloudy,False,False,False,False,False,False,False,False,False,False,False,False,False,Day,Day,Day,Day
A-1052849,Source2,3,2021-05-09 09:01:05,2021-05-09 11:51:56,41.913933,-87.9403,,,0.0,Lane blocked due to accident on I-290 Eisenhower Expy Westbound after York Rd .,N York St,Elmhurst,DuPage,IL,60126,US,US/Central,KORD,2021-05-09 08:51:00,43.0,36.0,82.0,29.16,6.0,ENE,15.0,0.03,Light Rain,False,False,False,False,False,False,False,False,False,False,False,False,False,Day,Day,Day,Day
A-6011431,Source1,2,2021-10-13 17:51:00.000000000,2021-10-13 18:14:30.000000000,33.886703000000004,-117.551266,33.8822,-117.547675,0.373,Slow traffic on I-15 S - Ontario Fwy S from Hidden Valley Pkwy (I-15) to CA-91 (I-15) due to accident.,I-15 S,Corona,Riverside,CA,92879,US,US/Pacific,KAJO,2021-10-13 17:56:00,70.0,70.0,20.0,29.32,10.0,W,9.0,0.0,Fair,False,False,False,False,False,False,False,False,False,False,False,False,False,Day,Day,Day,Day
A-3748560,Source1,2,2022-09-08 05:37:30.000000000,2022-09-08 14:42:30.000000000,34.036395,-118.32038,34.031186,-118.412206,5.27,Slow traffic on I-10 W - Santa Monica Fwy W from Arlington Ave (I-10) to Overland Ave/Exit 4 (I-10) due to accident.,I-10 W,Los Angeles,Los Angeles,CA,90018,US,US/Pacific,KCQT,2022-09-08 05:47:00,73.0,73.0,79.0,29.65,10.0,CALM,0.0,0.0,Fair,False,False,False,False,False,False,False,False,False,False,False,False,False,Night,Night,Day,Day
A-5705198,Source1,2,2021-08-30 20:34:30,2021-08-30 20:53:30,41.169385,-112.020421,41.158105,-112.024172,0.8029999999999999,Slow traffic on I-15 S from UT-26/Exit 342 (I-15) to UT-98/5600/5600 South St/Exit 338 (I-15) due to accident.,I-15 S,Ogden,Weber,UT,84405,US,US/Mountain,KOGD,2021-08-30 20:53:00,74.0,74.0,40.0,25.33,10.0,S,8.0,0.0,Fair,False,False,False,False,False,False,False,False,False,False,False,False,False,Night,Night,Day,Day
A-3553814,Source1,2,2016-07-07 15:27:44,2016-07-07 21:27:44,33.96112,-117.8543,33.971920000000004,-117.84605,0.883,Between Brea Canyon Rd and Diamond Bar Blvd - Accident.,CA-57 N,Rowland Heights,Los Angeles,CA,91748,US,US/Pacific,KFUL,2016-07-07 15:53:00,81.0,,45.0,29.91,10.0,WSW,8.1,,Clear,False,False,False,False,False,False,False,False,False,False,False,False,False,Day,Day,Day,Day
A-5056997,Source1,2,2022-09-17 22:28:00,2022-09-17 23:44:24,29.50748563,-98.55115056,29.48854563,-98.54529056,1.355,Incident on I-10 EB near I-410-LOOP Drive with caution.,McDermott Fwy,San Antonio,Bexar,TX,78229,US,US/Central,KSAT,2022-09-17 22:51:00,82.0,82.0,69.0,29.12,10.0,SE,15.0,0.0,Partly Cloudy,False,False,False,False,True,False,False,False,False,False,False,False,False,Night,Night,Night,Night
A-245721,Source2,2,2016-09-15 10:02:28,2016-09-15 10:47:28,40.143597,-76.304794,,,0.0,Slow traffic due to accident on PA-501 Broad St at 6th St.,S Broad St,Lititz,Lancaster,PA,17543-2808,US,US/Eastern,KLNS,2016-09-15 09:53:00,66.9,,51.0,30.27,10.0,NE,15.0,,Clear,False,False,False,False,False,False,False,False,False,False,False,True,False,Day,Day,Day,Day
A-3177009,Source2,3,2017-11-09 18:16:26,2017-11-09 18:46:09,32.275711,-90.176971,,,0.0,Right hand shoulder blocked due to accident on I-20 Eastbound before Exits 46 47A US-49.,I-20 E,Richland,Rankin,MS,39218,US,US/Central,KJAN,2017-11-09 17:54:00,54.0,,75.0,30.19,10.0,Calm,,,Clear,False,False,False,False,False,False,False,False,False,False,False,False,False,Night,Night,Night,Day
A-6181957,Source1,2,2021-12-09 14:46:07,2021-12-09 16:01:07,37.160275,-93.331164,37.160287,-93.332025,0.047,Incident on W BATTLEFIELD RD near S SCENIC AVE Drive with caution., W Battlefield St,Springfield,Greene,MO,65807-4009,US,US/Central,KSGF,2021-12-09 14:52:00,67.0,67.0,44.0,28.36,10.0,SW,13.0,0.0,Fair,False,False,False,False,False,False,False,False,False,False,False,False,False,Day,Day,Day,Day
A-3863347,Source1,2,2022-06-14 06:56:30,2022-06-14 08:14:30,37.974185,-121.339507,37.951146,-121.305147,2.457,Stationary traffic on I-5 S from March Ln (I-5) to CA-4 (I-5) due to accident.,I-5 S,Stockton,San Joaquin,CA,95204,US,US/Pacific,KSCK,2022-06-14 06:55:00,66.0,66.0,37.0,29.94,10.0,NNW,14.0,0.0,Fair,False,False,False,False,False,False,False,False,False,False,False,False,False,Day,Day,Day,Day
A-5655982,Source1,2,2021-04-19 13:13:00,2021-04-19 18:45:00,33.622224,-117.715174,33.611263,-117.703812,1.0,Slow traffic on San Diego Fwy S - I-5 S from Lake Forest Dr (I-5) to Alicia Pkwy (I-5) due to accident.,I-5 S,Laguna Hills,Orange,CA,92653,US,US/Pacific,KSNA,2021-04-19 12:53:00,78.0,78.0,35.0,29.93,10.0,S,13.0,0.0,Fair,False,False,False,False,False,False,False,False,False,False,False,True,False,Day,Day,Day,Day
A-2376434,Source2,2,2018-12-03 09:46:09,2018-12-03 10:30:51,30.227142,-92.024963,,,0.0,Accident on Saint Antoine St at Congress St.,S Saint Antoine St,Lafayette,Lafayette,LA,70501-5742,US,US/Central,KLFT,2018-12-03 09:53:00,60.1,,51.0,30.06,10.0,NNE,16.1,,Clear,False,False,False,False,False,False,False,False,False,False,False,False,False,Day,Day,Day,Day
A-3315004,Source2,3,2017-09-18 06:36:53,2017-09-18 07:21:02,30.315369,-81.769287,,,0.0,Accident on I-295 Northbound at Exit 21 I-10.,FL-8 W,Jacksonville,Duval,FL,32254,US,US/Eastern,KNIP,2017-09-18 05:53:00,73.9,,87.0,29.95,10.0,NW,4.6,,Partly Cloudy,False,False,False,False,True,False,False,False,False,False,False,False,False,Night,Night,Day,Day
A-1852508,Source2,3,2019-11-30 11:20:52,2019-11-30 12:35:24,40.70682100000001,-74.150444,,,3.660000085830689,Right hand shoulder blocked due to accident on I-95 Southbound between Exit 15E US-1-9 and Exit 14 I-78.,New Jersey Tpke N,Newark,Essex,NJ,07114,US,US/Eastern,KEWR,2019-11-30 10:51:00,40.0,34.0,33.0,30.07,10.0,NNE,8.0,0.0,Partly Cloudy,False,False,False,False,False,False,False,False,False,False,False,False,False,Day,Day,Day,Day
A-3833876,Source1,2,2022-07-28 07:11:54,2022-07-28 09:30:10,40.981499,-74.301354,40.981018,-74.300715,0.047,Incident on SR-23 near SR-23 Expect long delays., State RT 23,Pompton Plains,Morris,NJ,07444-1027,US,US/Eastern,KCDW,2022-07-28 06:53:00,74.0,74.0,91.0,29.68,10.0,CALM,0.0,0.0,Fair,False,False,False,False,False,False,False,False,False,False,False,False,False,Day,Day,Day,Day
A-2907573,Source2,2,2018-04-25 14:20:21,2018-04-25 15:19:49,40.088821,-76.380554,,,0.0,Restrictions due to accident on PA-283 Eastbound at PA-722 State Rd.,State Rd,Lancaster,Lancaster,PA,17601,US,US/Eastern,KLNS,2018-04-25 14:34:00,64.0,,80.0,29.7,10.0,Calm,,,Overcast,False,False,False,False,False,False,False,False,False,False,False,False,False,Day,Day,Day,Day
A-2173060,Source2,2,2019-04-17 15:59:51,2019-04-17 16:44:21,37.142044,-93.31871,,,0.0,Right lane closed due to accident on Kansas Expy Southbound before US-160 James River Fwy.,James River Fwy E,Springfield,Greene,MO,65807,US,US/Central,KSGF,2019-04-17 15:52:00,72.0,72.0,66.0,28.4,10.0,SSW,20.0,0.0,Cloudy,False,False,False,False,False,False,False,False,False,False,False,False,False,Day,Day,Day,Day
A-929120,Source2,2,2021-08-23 20:47:28,2021-08-23 21:55:50,28.009789,-82.731606,,,0.0,Accident on Enterprise Rd at Us-19.,US-19 N,Clearwater,Pinellas,FL,33761,US,US/Eastern,KPIE,2021-08-23 20:53:00,81.0,81.0,88.0,29.99,10.0,SSE,5.0,0.0,Fair,False,False,False,False,False,False,False,False,False,False,False,False,False,Night,Night,Day,Day
A-2995808,Source2,2,2018-02-07 16:07:43,2018-02-07 17:06:59,35.732506,-78.85032700000002,,,0.0,Accident on Salem St near Center St.,N Salem St,Apex,Wake,NC,27502-1429,US,US/Eastern,KTTA,2018-02-07 16:15:00,61.0,,94.0,29.94,10.0,South,19.6,,Light Rain,False,False,False,False,False,False,False,False,False,False,False,True,False,Day,Day,Day,Day
A-4090135,Source1,2,2022-12-08 19:30:00,2022-12-08 23:14:59,38.284463,-122.668654,38.283838,-122.667521,0.075,Incident on GOODWIN LN near OLD REDWOOD HWY Expect delays., Denman Rd,Penngrove,Sonoma,CA,94951,US,US/Pacific,KO69,2022-12-08 19:35:00,48.0,48.0,100.0,30.08,2.0,WNW,3.0,0.0,Fog,False,False,False,False,False,False,False,False,False,False,False,False,False,Night,Night,Night,Night
A-6206326,Source1,2,2021-08-28 15:32:00,2021-08-28 17:31:14,35.982341,-119.031876,35.98237800000001,-119.017958,0.778,Incident on AVENUE 106 near HOUSE 24491 Drive with caution., Avenue 106,Terra Bella,Tulare,CA,93270-9217,US,US/Pacific,KPTV,2021-08-28 15:56:00,103.0,103.0,18.0,29.23,10.0,NW,10.0,0.0,Fair,False,False,False,False,False,False,False,False,False,False,False,False,False,Day,Day,Day,Day
A-6666386,Source1,2,2020-12-13 14:08:00,2020-12-13 16:09:41,38.569907,-77.26606899999999,38.56736400000001,-77.263076,0.239,Incident on CHERRY HILL RD EB near RAIL ROAD TRACKS Expect delays., Cherry Hill Rd,Dumfries,Prince William,VA,22026-2939,US,US/Eastern,KNYG,2020-12-13 13:56:00,59.0,59.0,62.0,29.97,10.0,NE,9.0,0.0,Partly Cloudy,False,False,False,False,False,False,False,False,False,False,False,False,False,Day,Day,Day,Day
A-2757988,Source2,2,2018-06-13 09:38:00,2018-06-13 10:08:00,42.886494,-71.478096,,,0.0,Accident on Everett Tpke Westbound near Exit 12 Bedford Rd.,Everett Tpke N,Merrimack,Hillsborough,NH,03054,US,US/Eastern,KMHT,2018-06-13 09:53:00,75.9,,46.0,29.92,10.0,SSW,10.4,,Mostly Cloudy,False,False,False,False,False,False,False,False,False,False,False,False,False,Day,Day,Day,Day
A-5192948,Source1,2,2022-02-25 16:27:30,2022-02-25 17:10:30,38.402301,-122.823603,38.408625,-122.801497,1.274,Stationary traffic on CA-12 from CA-116/N Main St (Sebastopol Ave/CA-12) to Llano Rd (CA-12) due to accident., Bodega Ave,Sebastopol,Sonoma,CA,95472-3411,US,US/Pacific,KSTS,2022-02-25 16:53:00,54.0,54.0,35.0,30.08,10.0,WSW,10.0,0.0,Fair,False,False,False,False,False,False,False,False,False,False,False,False,False,Day,Day,Day,Day
A-4379541,Source1,4,2022-08-12 08:57:30,2022-08-12 09:25:31,45.353726,-93.92062,45.352952,-93.916464,0.209,I-94 E - US-52 E is closed from CR-8/Exit 183 (I-94) to MN-25/Exit 193 (I-94) due to accident.,I-94 E,Monticello,Wright,MN,55362,US,US/Central,KMGG,2022-08-12 01:23:00,68.0,68.0,78.0,29.06,10.0,E,5.0,0.0,Mostly Cloudy,False,False,False,False,False,False,False,False,False,False,False,False,False,Day,Day,Day,Day
A-5899014,Source1,2,2021-07-30 14:06:28,2021-07-30 15:27:42,37.11805,-80.413134,37.115666,-80.42891800000002,0.885,Incident on I-81 SB near I-81 Drive with caution.,I-81 S,Christiansburg,Montgomery,VA,24073,US,US/Eastern,KBCB,2021-07-30 14:15:00,85.0,85.0,52.0,27.79,10.0,NNW,13.0,0.0,Mostly Cloudy,False,False,False,False,False,False,False,False,False,False,False,False,False,Day,Day,Day,Day
A-391140,Source2,2,2017-03-17 11:57:47,2017-03-17 12:27:31,29.644056,-95.539078,,,0.01,Accident on TX-8 at Airport Blvd.,W Airport Blvd,Houston,Harris,TX,77031,US,US/Central,KSGR,2017-03-17 11:53:00,75.0,,66.0,30.24,10.0,South,13.8,,Overcast,False,False,False,False,False,False,False,False,False,False,False,False,False,Day,Day,Day,Day
A-4317839,Source1,2,2022-06-21 09:28:00,2022-06-21 11:23:25,25.947459,-80.18525600000002,25.937214,-80.197419,1.035,Incident on I-95 SB near SR-860 Expect delays.,I-95 S,Miami,Miami-Dade,FL,33179,US,US/Eastern,KHWO,2022-06-21 09:53:00,85.0,85.0,65.0,30.12,10.0,ENE,12.0,0.0,Fair,False,False,False,False,False,False,False,False,False,False,False,False,False,Day,Day,Day,Day
A-3620048,Source1,2,2017-05-08 08:11:47,2017-05-08 14:11:47,32.96828,-117.09346,32.95534,-117.10157,1.01,At CA-56/Ted Williams Pky - Accident.,Escondido Fwy S,San Diego,San Diego,CA,92129,US,US/Pacific,KNKX,2017-05-08 07:55:00,55.9,,69.0,29.9,10.0,NE,5.8,,Mostly Cloudy,False,False,False,False,True,False,False,False,False,False,False,False,False,Day,Day,Day,Day
A-480734,Source2,2,2017-06-08 15:48:01,2017-06-08 16:17:51,40.206249,-75.224731,,,0.0,Lane blocked due to accident on PA-309 Bethlehem Pike Northbound at PA-63 Welsh Rd.,W Welsh Rd,Ambler,Montgomery,PA,19002,US,US/Eastern,KLOM,2017-06-08 15:55:00,66.2,,60.0,29.93,10.0,SE,5.8,,Scattered Clouds,False,False,False,True,False,False,False,False,False,False,False,True,False,Day,Day,Day,Day
A-1310316,Source2,2,2020-09-23 08:12:31,2020-09-23 08:59:31,27.839684,-82.684494,,,0.0,Accident on US-19 at FL-694 Park Blvd.,Park Blvd N,Pinellas Park,Pinellas,FL,33781,US,US/Eastern,KPIE,2020-09-23 07:53:00,74.0,74.0,82.0,30.01,10.0,ENE,10.0,0.0,Fair,False,False,True,True,False,False,False,False,False,False,False,False,False,Day,Day,Day,Day
A-5901561,Source1,2,2021-08-28 00:00:02,2021-08-30 11:45:00,43.585027456075736,-118.97962689342984,43.559617456075735,-118.94663689342984,2.41,Incident on OR-78 SB near MP 6 Drive with caution., Highway 78,Burns,Harney,OR,97720-9381,US,US/Pacific,KBNO,2021-08-28 00:53:00,52.0,52.0,53.0,25.83,10.0,NW,8.0,0.0,Fair,False,False,False,False,False,False,False,False,False,False,False,False,False,Night,Night,Night,Night
A-5445334,Source1,2,2022-04-07 07:18:57,2022-04-07 09:32:06,44.866393,-93.247499,44.854562,-93.247275,0.818,Incident on MN-77 SB near I-494 Drive with caution.,MN-77 S,Minneapolis,Hennepin,MN,55423,US,US/Central,KMSP,2022-04-07 07:24:00,33.0,23.0,96.0,28.59,7.0,NNW,14.0,0.02,Wintry Mix,False,False,False,False,False,False,False,False,False,False,False,False,False,Day,Day,Day,Day
A-1102741,Source2,2,2021-03-28 21:57:57,2021-03-29 00:13:07,37.332039,-122.053596,,,2.1199998855590816,Entry ramp to I-280 Northbound at Exit 18 from CA-85 Westbound lane blocked due to accident.,I-280 S,Cupertino,Santa Clara,CA,95014,US,US/Pacific,KNUQ,2021-03-28 21:55:00,54.0,54.0,72.0,30.14,10.0,VAR,7.0,0.0,Fair,False,False,False,False,False,False,False,False,False,False,False,False,False,Night,Night,Night,Night
A-3255595,Source3,2,2017-10-19 07:05:33,2017-10-19 07:34:45,39.244564,-94.456131,,,0.0,Right lane closed due to multi-vehicle accident on MO-152 Barry Rd Westbound at I-35.,W Kansas St,Liberty,Clay,MO,64068,US,US/Central,KGPH,2017-10-19 07:15:00,46.4,,93.0,30.1,10.0,Calm,,,Clear,False,False,False,False,False,False,False,False,False,False,False,False,False,Night,Day,Day,Day
A-1312783,Source2,2,2020-09-24 16:20:09,2020-09-24 17:34:45,35.108967,-106.497467,,,0.0,Accident on NM-556 Tramway Blvd at Menaul Blvd.,Tramway Blvd NE,Albuquerque,Bernalillo,NM,87112,US,US/Mountain,KABQ,2020-09-24 15:52:00,87.0,87.0,13.0,24.72,10.0,WNW,8.0,0.0,Fair,False,False,True,False,False,False,False,False,False,False,False,True,False,Day,Day,Day,Day
A-4904457,Source1,2,2022-08-09 20:29:00.000000,2022-08-09 22:08:08.000000,39.256203,-120.969581,39.256954,-120.968798,0.067,Incident on QUAKER HILL CROSS RD near RED DOG RD Drive with caution., Grassview Ln,Nevada City,Nevada,CA,95959,US,US/Pacific,KGOO,2022-08-09 20:35:00,70.0,70.0,38.0,26.78,10.0,CALM,0.0,0.0,Fair,False,False,False,False,False,False,False,False,False,False,False,False,False,Night,Day,Day,Day
A-6109827,Source1,2,2021-10-28 15:35:35.000000000,2021-10-28 16:54:20.000000000,25.537465,-80.335369,25.537415,-80.347511,0.757,Incident on SW 248TH ST WB near SW 98TH BLK Expect delays.,SW 248th St,Homestead,Miami-Dade,FL,33032,US,US/Eastern,KHST,2021-10-28 15:56:00,85.0,85.0,72.0,29.77,10.0,SW,18.0,0.0,Partly Cloudy,False,False,False,False,False,False,False,False,False,False,False,False,False,Day,Day,Day,Day
A-568580,Source2,3,2022-07-12 15:39:17,2022-07-12 16:38:49,33.891991,-78.675598,,,0.0,Lane blocked due to crash on SC-57 at Seaford Dr.,Highway 57 N,Little River,Horry,SC,29566-7015,US,US/Eastern,KCRE,2022-07-12 15:53:00,80.0,80.0,90.0,29.9,10.0,WSW,5.0,0.01,Light Rain with Thunder,False,False,False,False,False,False,False,False,False,False,False,False,False,Day,Day,Day,Day
A-4338584,Source1,2,2022-09-12 19:05:58,2022-09-12 19:16:34,40.659972,-74.001678,40.663884,-73.99759300000002,0.345,Stationary traffic on I-278 E from 38th St/39th St/Exit 23 (I-278) to NY-27/Prospect Expy/Exit 24 (I-278) due to accident.,Brooklyn Queens Expy,Brooklyn,Kings,NY,11232,US,US/Eastern,KJRB,2022-09-12 18:51:00,77.0,77.0,74.0,29.69,10.0,SE,3.0,0.0,Fair,False,False,False,False,False,False,False,False,False,False,False,True,False,Day,Day,Day,Day
A-3039844,Source2,3,2018-01-01 17:36:01,2018-01-01 18:20:45,33.927925,-118.254295,,,0.0,Accident on I-105 Westbound at Exit 9 Central Ave.,S Central Ave,Los Angeles,Los Angeles,CA,90059,US,US/Pacific,KHHR,2018-01-01 17:53:00,60.1,,90.0,30.13,10.0,WNW,4.6,,Clear,False,False,False,False,False,False,False,False,False,False,False,False,False,Night,Night,Day,Day
A-4157630,Source1,2,2022-12-21 08:41:11.000000000,2022-12-21 10:01:33.000000000,36.313333,-86.830446,36.316459,-86.834049,0.295,Incident on I-24 WB near CLAY LICK RD Expect delays.,I-24 W,Whites Creek,Davidson,TN,37189,US,US/Central,KBNA,2022-12-21 08:53:00,39.0,39.0,67.0,29.72,10.0,NE,3.0,0.0,Partly Cloudy,False,False,False,False,False,False,False,False,False,False,False,False,False,Day,Day,Day,Day
A-3399960,Source2,2,2017-08-24 21:56:51,2017-08-24 22:26:37,29.74766,-95.56958,,,0.0,Accident on Briar Forest Dr at Lakeside Estates Dr.,Briar Forest Dr,Houston,Harris,TX,77042-2210,US,US/Central,KMCJ,,,,,,,,,,,False,False,False,False,False,False,False,False,False,False,False,True,False,Night,Night,Night,Night
A-2223404,Source2,3,2019-03-17 19:54:39,2019-03-17 20:40:00,37.399887,-121.140175,,,0.0,#2 lane blocked due to accident on I-5 Southbound at Exit 428 Fink Rd.,Westside Fwy S,Patterson,Stanislaus,CA,95363,US,US/Pacific,KMOD,2019-03-17 19:53:00,66.0,,45.0,30.01,10.0,NNW,4.6,,Clear,False,False,False,False,False,False,False,False,False,False,False,False,False,Night,Night,Day,Day
A-5373576,Source1,2,2022-04-13 16:05:00,2022-04-13 17:20:18,30.610827,-87.13179699999998,30.613471,-87.131702,0.183,Incident on E SPENCER FIELD RD near WHITE RD Drive with caution., White Rd,Milton,Santa Rosa,FL,32571-1391,US,US/Central,KNDZ,2022-04-13 15:56:00,76.0,76.0,69.0,29.78,10.0,S,14.0,0.0,Mostly Cloudy,False,False,False,False,False,False,False,False,False,False,False,False,False,Day,Day,Day,Day
A-460741,Source2,2,2017-06-13 18:59:35,2017-06-13 19:44:17,33.870041,-117.74673500000002,,,0.0,#2 lane blocked due to accident on CA-91 Eastbound at Exit 39 Weir Canyon Rd.,Riverside Fwy E,Anaheim,Orange,CA,92807,US,US/Pacific,KFUL,2017-06-13 18:53:00,77.0,,32.0,29.83,10.0,Variable,6.9,,Clear,False,False,False,False,False,False,False,False,False,False,False,False,False,Day,Day,Day,Day
A-4666006,Source1,4,2022-12-04 05:57:18,2022-12-04 07:12:21,39.349092,-108.184079,39.343035,-108.191856,0.59,Incident on I-70 WB near DE BEQUE Road closed. Take alternate route.,US-6,De Beque,Mesa,CO,81630,US,US/Mountain,KGJT,2022-12-04 05:53:00,31.0,31.0,76.0,25.27,10.0,NE,3.0,0.0,Mostly Cloudy,False,False,False,False,False,False,False,False,False,False,False,False,False,Night,Night,Night,Day
A-1627138,Source2,2,2020-02-04 07:25:54,2020-02-04 08:55:43,41.266891,-96.021812,,,0.0,Accident bus involved on 70th Ct at Burt St.,N 70th Ct,Omaha,Douglas,NE,68132,US,US/Central,KOMA,2020-02-04 07:52:00,23.0,8.0,63.0,29.09,10.0,N,21.0,0.0,Mostly Cloudy / Windy,False,False,False,False,False,False,False,False,False,False,False,False,False,Night,Day,Day,Day
A-6576214,Source1,2,2020-10-03 09:49:00,2020-10-03 12:31:13,38.30008400000001,-122.485053,38.298725,-122.482647,0.161,Incident on RIVERSIDE DR near HOUSE 19190 Drive with caution., Riverside Dr,Sonoma,Sonoma,CA,95476-5321,US,US/Pacific,KO69,2020-10-03 09:55:00,66.0,66.0,68.0,29.85,10.0,CALM,0.0,0.0,Partly Cloudy,False,False,False,False,False,False,False,False,False,False,False,False,False,Day,Day,Day,Day
A-2759915,Source2,2,2018-06-13 04:38:21,2018-06-13 05:07:59,37.45882,-122.137894,,,0.0,Accident on US-101 Northbound before Exit 403 CA-109 University Ave.,US-101 N,Palo Alto,San Mateo,CA,94303,US,US/Pacific,KPAO,2018-06-13 06:47:00,57.2,,88.0,29.81,10.0,Calm,,,Clear,False,False,False,False,True,False,False,False,False,False,False,False,False,Night,Night,Day,Day
A-4896137,Source1,2,2022-09-12 09:24:00,2022-09-12 09:36:00,34.027823,-118.453881,34.025651,-118.465336,0.6729999999999999,Slow traffic on I-10 W - Santa Monica Fwy W from Bundy Dr (I-10) to Cloverfield Blvd (I-10) due to accident.,I-10 W,Santa Monica,Los Angeles,CA,90404,US,US/Pacific,KSMO,2022-09-12 09:51:00,79.0,79.0,69.0,29.8,10.0,S,5.0,0.0,Fair,False,False,False,False,False,False,False,False,False,False,False,False,False,Day,Day,Day,Day
A-2952815,Source2,2,2018-03-18 10:59:07,2018-03-18 11:28:39,38.922794,-110.376236,,,0.0,Accident on I-70 Westbound at Exit 149 UT-24.,UT-24,Green River,Emery,UT,84525,US,US/Mountain,KU28,2018-03-18 11:01:00,33.0,23.0,100.0,25.14,0.75,W,14.0,0.0,Light Snow,False,False,False,False,False,False,False,False,False,False,False,False,False,Day,Day,Day,Day
A-1441656,Source2,3,2020-08-28 11:08:16,2020-08-28 11:37:56,30.692099,-86.12233,,,0.0,Two lanes blocked due to accident on I-10 Eastbound at Exit 85 US-331 Freeport Rd.,FL-83,Defuniak Springs,Walton,FL,32435,US,US/Central,K54J,2020-08-28 10:53:00,89.0,89.0,65.0,29.83,10.0,S,8.0,0.0,Partly Cloudy,False,False,False,False,False,False,False,False,False,False,False,False,False,Day,Day,Day,Day
A-4966660,Source1,2,2023-01-06 10:04:00,2023-01-06 11:19:00,33.613424,-84.397152,33.617470000000004,-84.398308,0.287,Incident on I-75 NB near GA-331 Road closed. Take alternate route.,GA-401 N,Forest Park,Clayton,GA,30297,US,US/Eastern,KATL,2023-01-06 09:52:00,46.0,41.0,54.0,29.16,10.0,NW,12.0,0.0,Fair,False,False,False,False,False,False,False,False,False,False,False,False,False,Day,Day,Day,Day
A-6184203,Source1,2,2021-07-07 09:34:00.000000000,2021-07-07 13:32:50.000000000,41.60182356814574,-87.16862797695555,41.60709356814574,-87.11318797695554,2.887,Accident on IN-249/Exit 19 (I-94) from US-20/Exit 22 (I-94) to I-94 E.,I-94,Portage,Porter,IN,46368,US,US/Central,KGYY,2021-07-07 09:45:00,82.0,82.0,70.0,29.32,10.0,SW,6.0,0.0,Fair,False,False,False,False,False,False,False,False,False,False,False,False,False,Day,Day,Day,Day
A-4282493,Source1,2,2022-01-22 08:01:37.000000000,2022-01-22 09:16:37.000000000,29.789321,-95.484609,29.789291,-95.484864,0.015,Incident on BELLEWOOD LN near WIRT RD Drive with caution., Bellewood Dr,Houston,Harris,TX,77055-6805,US,US/Central,KMCJ,2022-01-22 07:53:00,34.0,25.0,54.0,30.42,10.0,NE,14.0,0.0,Fair,False,False,False,False,False,False,False,False,False,True,False,False,False,Day,Day,Day,Day
A-4419871,Source1,2,2022-11-07 05:55:09.000000000,2022-11-07 12:42:51.000000000,45.912215,-112.355435,45.914886,-112.374186,0.92,Incident on I-90 WB near MM 241 Drive with caution.,I-90 W,Whitehall,Jefferson,MT,59759,US,US/Mountain,KBTM,2022-11-07 05:53:00,21.0,13.0,85.0,24.13,1.0,SW,6.0,0.0,Light Snow,False,False,False,False,False,False,False,False,False,False,False,False,False,Night,Night,Night,Day
A-94991,Source2,3,2016-09-03 11:48:52,2016-09-03 12:18:52,33.383747,-117.57901,,,0.0,Accident on I-5 Southbound at Exit 71 Old Pacific Hwy.,San Diego Fwy S,San Clemente,San Diego,CA,92672,US,US/Pacific,KNXF,2016-09-03 11:56:00,72.0,,61.0,29.9,9.0,SSW,11.5,,Clear,False,False,False,False,False,False,False,False,False,False,False,False,False,Day,Day,Day,Day
A-5263287,Source1,2,2022-04-30 14:03:23,2022-04-30 16:05:11,28.604153000000004,-81.55147099999998,28.603205,-81.550784,0.078,Slow traffic on County Hwy-437 from Chablis Way to FL-429 S due to accident., Ocoee Apopka Rd,Ocoee,Orange,FL,34761-5302,US,US/Eastern,KORL,2022-04-30 13:53:00,82.0,82.0,51.0,29.93,10.0,ESE,8.0,0.0,Mostly Cloudy,False,False,False,False,False,False,False,False,False,False,False,False,False,Day,Day,Day,Day
A-321764,Source2,3,2017-02-07 15:12:27,2017-02-07 15:41:22,28.565254,-81.191277,,,0.01,Accident on FL-50 Colonial Dr Westbound at FL-408 West Expy Exit 23.,Challenger Pkwy,Orlando,Orange,FL,32828,US,US/Eastern,KORL,2017-02-07 14:53:00,80.1,,54.0,29.98,10.0,South,9.2,,Partly Cloudy,False,False,False,False,False,False,False,False,False,False,False,False,False,Day,Day,Day,Day
A-6477191,Source1,2,2021-02-15 01:06:57,2021-02-15 04:11:09,34.153744,-80.764048,34.153862,-80.764124,0.009,Incident on WHITE POND RD near TALL PINES LN Expect delays., Tall Pines Ln,Elgin,Kershaw,SC,29045,US,US/Eastern,KCDN,2021-02-15 07:15:00,39.0,39.0,93.0,29.78,2.0,CALM,0.0,0.0,Fog,False,False,False,False,False,False,False,False,False,False,False,False,False,Night,Night,Night,Night
A-734452,Source2,3,2022-01-26 07:17:47,2022-01-26 07:47:19,42.03707100000001,-88.03070100000002,,,0.0,Lane blocked due to accident on I-290 Westbound at Exit 1B / IL-72 Higgins Rd.,IL-53,Schaumburg,Cook,IL,60173,US,US/Central,KPWK,2022-01-26 06:52:00,-4.0,-15.0,62.0,29.78,10.0,W,5.0,0.0,Fair,False,False,False,False,False,False,False,False,False,False,False,False,False,Day,Day,Day,Day
A-2564252,Source2,3,2018-09-05 16:34:10,2018-09-05 17:04:00,25.941519,-80.189461,,,0.0,Accident on I-95 Northbound at Exit 14 FL-860 Miami Gardens Dr.,I-95 N,Miami,Miami-Dade,FL,33179,US,US/Eastern,KHWO,2018-09-05 16:53:00,89.1,,63.0,30.01,10.0,ENE,12.7,,Scattered Clouds,False,False,False,False,False,False,False,False,False,False,False,False,False,Day,Day,Day,Day
A-6881639,Source1,2,2020-10-30 03:01:00.000000000,2020-10-30 04:22:26.000000000,38.399888,-78.908947,38.426488,-78.877537,2.504,Incident on I-81 NB near MM 245 Expect delays.,I-81 N,Harrisonburg,Harrisonburg,VA,22801,US,US/Eastern,KSHD,2020-10-30 02:55:00,48.0,43.0,95.0,28.39,10.0,NNE,10.0,0.09,Light Rain,False,False,False,False,False,False,False,False,False,False,False,False,False,Night,Night,Night,Night
A-5517904,Source1,2,2021-11-03 14:44:30,2021-11-03 16:50:00,38.531701,-77.358337,38.567633,-77.335391,2.775,Stationary traffic on I-95 N from Russell Rd/Exit 148 (I-95) to VA-234/Exit 152 (I-95) due to accident.,I-95 N,Triangle,Prince William,VA,22172,US,US/Eastern,KNYG,2021-11-03 14:56:00,54.0,54.0,34.0,30.3,10.0,N,9.0,0.0,Fair,False,False,False,False,False,False,False,False,False,False,False,False,False,Day,Day,Day,Day
A-5134567,Source1,2,2022-07-07 12:00:35,2022-07-07 19:54:58,33.799402,-84.39674699999998,33.780731,-84.391209,1.329,Slow traffic on I-75 S - GA-401 S - I-85 S - GA-403 S from US-41/Northside Dr/Exit 252A (I-75) to I-75 &amp; I-85 Junction (I-75) due to accident.,GA-401 S,Atlanta,Fulton,GA,30309,US,US/Eastern,KFTY,2022-07-07 11:53:00,90.0,90.0,59.0,29.16,10.0,W,8.0,0.0,Fair,False,False,False,False,False,False,False,False,False,False,False,False,False,Day,Day,Day,Day
A-6881459,Source1,2,2020-11-05 05:52:16.000000000,2020-11-05 07:22:00.000000000,38.974748,-94.71386,38.971437,-94.713842,0.229,Incident on US-69 SB near I-35 Drive with caution.,US-69 S,Overland Park,Johnson,KS,66214,US,US/Central,KOJC,2020-11-05 05:53:00,50.0,50.0,77.0,28.97,10.0,S,6.0,0.0,Fair,False,False,False,False,False,False,False,False,False,False,False,False,False,Night,Night,Day,Day
A-4740407,Source1,4,2022-09-13 14:53:00,2022-09-13 17:38:00,35.644602,-78.565164,35.646319,-78.565034,0.119,Incident on I-40 WB near EXIT 309 Road closed. Take alternate route.,New Bethel Church Rd,Garner,Wake,NC,27529,US,US/Eastern,KRDU,2022-09-13 14:51:00,85.0,85.0,34.0,29.46,10.0,VAR,5.0,0.0,Partly Cloudy,False,False,False,False,False,False,False,False,False,False,False,False,False,Day,Day,Day,Day
A-4819520,Source1,2,2022-02-12 15:31:51,2022-02-12 17:13:52,36.84461474401071,-76.2013113495054,36.84570474401071,-76.19040134950542,0.608,Incident on I-264 EB near MM 13 Expect delays.,I-264,Norfolk,Norfolk (City),VA,23502,US,US/Eastern,KORF,2022-02-12 15:59:00,71.0,71.0,29.0,29.98,10.0,SW,7.0,0.0,Mostly Cloudy,False,False,False,False,True,False,False,False,False,False,False,False,False,Day,Day,Day,Day
A-5042240,Source1,2,2022-01-23 10:55:27,2022-01-23 12:59:43,40.73851704578048,-73.80646347964378,40.73987704578048,-73.81800347964378,0.611,NYSDOT - Region 11: Crash on I-495 westbound approaching Exit 24 - Kissena Boulevard / 164th Street (New York) 1 Left lane of 3 lanes blocked,Long Island Expy,Fresh Meadows,Queens,NY,11365,US,US/Eastern,KLGA,2022-01-23 10:51:00,32.0,23.0,38.0,29.91,10.0,W,12.0,0.0,Mostly Cloudy,False,False,False,False,True,False,False,False,False,False,False,False,False,Day,Day,Day,Day
A-1186783,Source2,2,2021-01-20 08:32:55,2021-01-20 09:20:49,42.91906,-83.47476999999998,,,0.0,Accident on Hegel Rd at Henderson Rd.,Hegel Rd,Goodrich,Genesee,MI,48438-9752,US,US/Eastern,KFNT,2021-01-20 08:53:00,21.0,12.0,74.0,29.31,10.0,SW,7.0,0.0,Cloudy,False,False,False,False,False,False,False,False,False,False,False,False,False,Day,Day,Day,Day
A-3659224,Source1,2,2023-03-24 17:24:00,2023-03-24 19:31:13,37.934803,-120.843769,37.94475,-120.843754,0.687,Accident on County Hwy-J14 from Dunton Rd to E Highway 4., Milton Rd,Farmington,Stanislaus,CA,95230,US,US/Pacific,KSCK,2023-03-24 16:55:00,60.0,60.0,30.0,30.3,10.0,N,15.0,0.0,Fair,False,False,False,False,False,False,False,False,False,False,False,False,False,Day,Day,Day,Day
A-4064296,Source1,2,2022-05-02 12:34:00.000000000,2022-05-02 14:36:57.000000000,25.928151,-80.200342,25.928253,-80.204391,0.252,Stationary traffic on FL-826 from NE 167th St / N Miami Ave to NW 2nd Ave due to accident., N Miami Ave,North Miami Beach,Miami-Dade,FL,33169-6033,US,US/Eastern,KHWO,2022-05-02 12:53:00,83.0,83.0,60.0,30.09,10.0,ESE,14.0,0.0,Fair,False,False,False,False,False,False,False,False,True,False,False,True,False,Day,Day,Day,Day
A-2764503,Source2,3,2018-06-15 07:55:12,2018-06-15 08:54:54,34.163002,-111.325035,,,0.0,Accident on AZ-87 Beeline Hwy Northbound at AZ-87 Beeline Hwy.,Beeline Hwy,Payson,Gila,AZ,85541,US,US/Mountain,KPAN,2018-06-15 07:55:00,77.0,,29.0,30.07,10.0,Variable,3.5,,Clear,False,False,False,False,False,False,False,False,False,False,False,False,False,Day,Day,Day,Day
A-1687978,Source2,3,2019-12-02 15:27:43,2019-12-02 17:05:09,38.19735,-87.035545,,,0.0,Right lane blocked due to accident on I-64 Westbound near Exit 54 IN-161.,N State Road 161,Dale,Warrick,IN,47523,US,US/Eastern,KHNB,2019-12-02 15:35:00,35.0,25.0,77.0,29.55,10.0,WNW,14.0,0.0,Cloudy,False,False,False,False,False,False,False,False,False,False,False,False,False,Day,Day,Day,Day
A-164878,Source2,3,2016-08-16 11:29:48,2016-08-16 12:22:00,41.59203,-93.790596,,,0.0,Left lane blocked due to accident on I-80 Westbound between I-235 and 60th St.,I-80 E,West des Moines,Dallas,IA,50266,US,US/Central,KDSM,2016-08-16 11:54:00,81.0,,65.0,30.04,10.0,SW,6.9,,Mostly Cloudy,False,False,False,False,False,False,False,False,False,False,False,False,False,Day,Day,Day,Day
A-570721,Source2,3,2022-07-10 02:31:31,2022-07-10 03:21:53,33.930332,-118.384697,,,0.0,Lane blocked due to crash on I-105 Eastbound at Atwood Way.,E Imperial Hwy,El Segundo,Los Angeles,CA,90245,US,US/Pacific,KLAX,2022-07-10 02:53:00,65.0,65.0,87.0,29.89,10.0,S,6.0,0.0,Fair,False,False,False,False,False,False,False,False,False,False,False,False,False,Night,Night,Night,Night
A-492218,Source2,3,2017-07-17 14:15:21,2017-07-17 14:45:21,37.523804,-121.945404,,,0.0,Accident on I-680 Northbound at Exit 14 Auto Mall Pkwy.,I-680 N,Fremont,Alameda,CA,94539,US,US/Pacific,KNUQ,2017-07-17 13:56:00,75.9,,50.0,29.91,10.0,NNW,9.2,,Clear,False,False,False,False,False,False,False,False,False,False,False,False,False,Day,Day,Day,Day
A-5160587,Source1,2,2022-11-03 09:49:13,2022-11-03 11:07:49,44.155993,-93.948912,44.156178,-93.948905,0.013,Incident on MN-22 NB near HOFFMAN RD Drive with caution., Hoffman Rd,Mankato,Blue Earth,MN,56001,US,US/Central,KMKT,2022-11-03 09:56:00,60.0,60.0,78.0,28.76,10.0,S,14.0,0.0,Cloudy,False,False,True,False,False,False,False,False,False,False,False,True,False,Day,Day,Day,Day
A-4718670,Source1,2,2022-02-14 18:56:00.000000000,2022-02-14 20:17:54.000000000,34.154463,-118.469983,34.154434,-118.469806,0.01,Incident on VENTURA BLVD near HOUSE 15445 Drive with caution., Orion Ave,Sherman Oaks,Los Angeles,CA,91403-1026,US,US/Pacific,KVNY,2022-02-14 18:51:00,63.0,63.0,41.0,29.06,10.0,E,3.0,0.0,Fair,False,False,False,False,False,False,False,False,False,False,False,False,False,Night,Night,Night,Day
A-5862159,Source1,2,2021-10-08 14:42:19,2021-10-08 15:57:19,29.80279,-95.48491,29.802786,-95.483664,0.075,Incident on LONG POINT RD near WIRT RD Drive with caution.,Long Point Rd,Houston,Harris,TX,77055,US,US/Central,KMCJ,2021-10-08 14:53:00,90.0,,37.0,29.98,10.0,,,0.0,Fair,False,False,False,False,False,False,False,False,False,False,False,True,False,Day,Day,Day,Day
A-804593,Source2,3,2021-11-25 06:42:47,2021-11-25 07:12:32,40.335148,-104.980141,,,0.0,Right lane closed due to accident on I-25 Northbound at Exit 252 CO-60.,I-25 N,Johnstown,Weld,CO,80534,US,US/Mountain,KFNL,2021-11-25 06:56:00,16.0,16.0,92.0,25.26,10.0,CALM,0.0,0.0,Fair,False,False,False,False,False,False,False,False,False,False,False,False,False,Night,Day,Day,Day
A-4792461,Source1,2,2023-01-16 03:44:00,2023-01-16 05:58:50,37.411285,-122.077985,37.41176,-122.077977,0.033,Accident on N Shoreline Blvd from W Middlefield Rd to US-101/Bayshore Fwy/La Avenida St.,N Shoreline Blvd,Mountain View,Santa Clara,CA,94043,US,US/Pacific,KNUQ,2023-01-16 04:45:00,45.0,37.0,93.0,29.49,7.0,NNW,16.0,0.0,Light Rain,False,False,False,False,True,False,False,False,False,False,False,False,False,Night,Night,Night,Night
A-5221423,Source1,2,2022-03-01 17:49:34,2022-03-01 19:28:44,42.64123320559196,-73.75208973849416,42.64695320559196,-73.74863973849413,0.4320000000000001,Incident on I-787 NB near I-787 Drive with caution.,I-787 N,Albany,Albany,NY,12202,US,US/Eastern,KALB,2022-03-01 17:51:00,39.0,30.0,53.0,29.59,10.0,S,17.0,0.0,Cloudy,False,False,False,False,True,False,False,False,False,False,False,False,False,Night,Day,Day,Day
A-2557827,Source2,3,2018-08-31 18:58:45,2018-08-31 19:28:25,37.386616,-121.90554,,,0.0,#1 lane blocked due to accident on I-880 Southbound at Exit 5 Brokaw Rd.,I-880 S,San Jose,Santa Clara,CA,95131,US,US/Pacific,KSJC,2018-08-31 18:53:00,69.8,,60.0,29.93,10.0,North,17.3,,Mostly Cloudy,False,False,False,False,False,False,False,False,False,False,False,False,False,Day,Day,Day,Day
A-1907751,Source2,3,2019-09-12 13:00:20,2019-09-12 14:30:03,39.993687,-85.843124,,,0.0,Accident on I-69 Northbound at Exit 214 IN-13.,S State Route 13,Pendleton,Madison,IN,46064,US,US/Eastern,KAID,2019-09-12 12:59:00,88.0,88.0,55.0,29.13,10.0,WNW,5.0,0.0,Partly Cloudy,False,False,False,False,False,False,False,False,False,False,False,False,False,Day,Day,Day,Day
A-3244595,Source2,2,2017-10-13 11:53:16,2017-10-13 12:23:05,33.247822,-111.823502,,,0.0,Accident on McQueen Rd at Ocotillo Rd.,E Ocotillo Rd,Chandler,Maricopa,AZ,85249,US,US/Mountain,KCHD,2017-10-13 11:47:00,86.0,,14.0,29.96,10.0,Calm,,,Clear,False,False,True,False,False,False,False,False,False,False,False,True,False,Day,Day,Day,Day
A-4580245,Source1,2,2022-11-07 07:43:00,2022-11-07 09:00:26,32.400221,-93.710523,32.401011,-93.710589,0.055,Incident on ASHLEY RIVER RD near E FLOURNOY LUCAS RD Drive with caution.,Absinthe Ct,Shreveport,Caddo,LA,71115,US,US/Central,KBAD,2022-11-07 07:43:00,70.0,70.0,94.0,30.0,10.0,CALM,0.0,0.0,Cloudy,False,False,False,False,False,False,False,False,False,False,False,False,False,Day,Day,Day,Day
